[{"station_ref": "51107", "label": "Beggearn Huish", "lat": 51.146322, "lon": -3.373695, "catchment": null, "daily_level_measure_url": "http://environment.data.gov.uk/hydrology/id/measures/48513a18-e485-4317-ae92-93bf4f7f3e54-level-max-86400-m-qualified"}, {"station_ref": "F0803", "label": "Adwick", "lat": 53.512713, "lon": -1.282505, "catchment": null, "daily_level_measure_url": "http://environment.data.gov.uk/hydrology/id/measures/f22f80f8-1bb0-4e77-b225-291487060c6f-level-max-86400-m-qualified"}, {"station_ref": "2048", "label": "Wellesbourne", "lat": 52.197839, "lon": -1.602416, "catchment": null, "daily_level_measure_url": "http://environment.data.gov.uk/hydrology/id/measures/95a1245a-5329-4a2b-9024-d70ebe9707df-level-min-86400-m-qualified"}, {"station_ref": "45118", "label": "Thorverton", "lat": 50.804172, "lon": -3.511302, "catchment": null, "daily_level_measure_url": "http://environment.data.gov.uk/hydrology/id/measures/3c4d4f78-2d0e-474a-b884-65a9daca18fb-level-min-86400-m-qualified"}, {"station_ref": "52204", "label": "Iwood", "lat": 51.363977, "lon": -2.78889, "catchment": null, "daily_level_measure_url": "http://environment.data.gov.uk/hydrology/id/measures/959f3e4f-bb6e-4f4a-8082-0157eea99482-level-min-86400-m-qualified"}, {"station_ref": "4101", "label": "Sheepwash", "lat": 52.523665, "lon": -2.039788, "catchment": null, "daily_level_measure_url": "http://environment.data.gov.uk/hydrology/id/measures/70f658a0-3d32-47db-a97c-ed5e25da46f2-level-min-86400-m-qualified"}, {"station_ref": "F3606", "label": "Low Moor", "lat": 54.488963, "lon": -1.438958, "catchment": null, "daily_level_measure_url": "http://environment.data.gov.uk/hydrology/id/measures/d031ef9f-4e50-4c68-aa43-9b5589c32874-level-max-86400-m-qualified"}, {"station_ref": "F1301", "label": "Methley", "lat": 53.726053, "lon": -1.382684, "catchment": null, "daily_level_measure_url": "http://environment.data.gov.uk/hydrology/id/measures/825e7c96-b693-4366-8e39-a7fc587d442a-level-max-86400-m-qualified"}, {"station_ref": "2038", "label": "Llanyblodwel", "lat": 52.794359, "lon": -3.110219, "catchment": null, "daily_level_measure_url": "http://environment.data.gov.uk/hydrology/id/measures/cf8c9032-6d1d-473d-b304-3837260188cb-level-max-86400-m-qualified"}, {"station_ref": "F1306", "label": "Dewsbury", "lat": 53.688804, "lon": -1.6344, "catchment": null, "daily_level_measure_url": "http://environment.data.gov.uk/hydrology/id/measures/d7896c1f-b892-4272-b78a-9bb4d5a53c5b-level-max-86400-m-qualified"}, {"station_ref": "680504", "label": "Ashbrook", "lat": 53.167657, "lon": -2.492504, "catchment": null, "daily_level_measure_url": "http://environment.data.gov.uk/hydrology/id/measures/406a65e7-477b-4964-ba9b-47e452eca166-level-min-86400-m-qualified"}, {"station_ref": "4061", "label": "Basford Bridge", "lat": 53.065004, "lon": -2.027783, "catchment": null, "daily_level_measure_url": "http://environment.data.gov.uk/hydrology/id/measures/68903310-c62d-4434-a7d4-96e766335179-level-min-86400-m-qualified"}, {"station_ref": "48127", "label": "Trenowth", "lat": 50.319157, "lon": -4.898882, "catchment": null, "daily_level_measure_url": "http://environment.data.gov.uk/hydrology/id/measures/ddb6b643-06b0-4e48-b74c-f12f6f946968-level-max-86400-m-qualified"}, {"station_ref": "0503SO", "label": "Stonebridge", "lat": 51.133145, "lon": 0.453946, "catchment": null, "daily_level_measure_url": "http://environment.data.gov.uk/hydrology/id/measures/3eb60c5b-875e-46e7-b8d9-b1208d023bc4-level-max-86400-m-qualified"}, {"station_ref": "4022", "label": "North Muskham", "lat": 53.13617, "lon": -0.799124, "catchment": null, "daily_level_measure_url": "http://environment.data.gov.uk/hydrology/id/measures/15eae722-7f1f-41cb-a93e-2acdeca10a0a-level-min-86400-m-qualified"}, {"station_ref": "E22862", "label": "Felsted", "lat": 51.847826, "lon": 0.424377, "catchment": null, "daily_level_measure_url": "http://environment.data.gov.uk/hydrology/id/measures/bf679fd0-8d8f-4815-a569-ec798d81f324-level-max-86400-m-qualified"}, {"station_ref": "5339TH", "label": "Ordnance Road", "lat": 51.671889, "lon": -0.019618, "catchment": null, "daily_level_measure_url": "http://environment.data.gov.uk/hydrology/id/measures/78a37028-e8de-4835-825a-6957d26306cf-level-min-86400-m-qualified"}, {"station_ref": "693976", "label": "Westy Flow", "lat": 53.390586, "lon": -2.560304, "catchment": null, "daily_level_measure_url": "http://environment.data.gov.uk/hydrology/id/measures/adec4dd7-9cdb-4c58-8fc3-2e509aecfbcd-level-max-86400-m-qualified"}, {"station_ref": "4018", "label": "Marston On Dove", "lat": 52.856568, "lon": -1.648793, "catchment": null, "daily_level_measure_url": "http://environment.data.gov.uk/hydrology/id/measures/99d4811b-5177-469a-b217-732a8f1bdd13-level-min-86400-m-qualified"}, {"station_ref": "44246", "label": "Upwey", "lat": 50.665123, "lon": -2.480985, "catchment": null, "daily_level_measure_url": "http://environment.data.gov.uk/hydrology/id/measures/b260a0a3-aaeb-40cf-b8cf-b1024a2db5d7-level-min-86400-m-qualified"}, {"station_ref": "E1750", "label": "Leasingham Mill", "lat": 53.020935, "lon": -0.379436, "catchment": null, "daily_level_measure_url": "http://environment.data.gov.uk/hydrology/id/measures/544f2ad9-d14f-403c-bb42-abd8d5acfc8d-level-max-86400-m-qualified"}, {"station_ref": "680301", "label": "Audlem", "lat": 52.983547, "lon": -2.518975, "catchment": null, "daily_level_measure_url": "http://environment.data.gov.uk/hydrology/id/measures/9cee5ed4-ddd7-4903-8f74-00f52a78c05c-level-max-86400-m-qualified"}, {"station_ref": "F3402", "label": "Wholsea Grange", "lat": 53.799018, "lon": -0.719127, "catchment": null, "daily_level_measure_url": "http://environment.data.gov.uk/hydrology/id/measures/b23821f8-f8e5-4b3d-a821-70913abe37cf-level-min-86400-m-qualified"}, {"station_ref": "3829TH", "label": "Colindale", "lat": 51.591209, "lon": -0.244516, "catchment": null, "daily_level_measure_url": "http://environment.data.gov.uk/hydrology/id/measures/6f727c14-422c-4b7f-922d-b430d9aa07a2-level-max-86400-m-qualified"}, {"station_ref": "44216", "label": "Sydling St Nicholas", "lat": 50.795228, "lon": -2.522941, "catchment": null, "daily_level_measure_url": "http://environment.data.gov.uk/hydrology/id/measures/4485824a-191e-4504-b0e4-7fa2e2119fb6-level-max-86400-m-qualified"}, {"station_ref": "1100TH", "label": "Farmoor", "lat": 51.757588, "lon": -1.366311, "catchment": null, "daily_level_measure_url": "http://environment.data.gov.uk/hydrology/id/measures/6b80bd1c-6c19-4c26-875d-108bf8ef1a84-level-max-86400-m-qualified"}, {"station_ref": "44205", "label": "Loudsmill", "lat": 50.711872, "lon": -2.414244, "catchment": null, "daily_level_measure_url": "http://environment.data.gov.uk/hydrology/id/measures/6c6c174e-519f-4b02-9e3e-1737f2139417_445510-level-max-86400-m-qualified"}, {"station_ref": null, "label": "Loudsmill Combined", "lat": 50.712041, "lon": -2.414784, "catchment": null, "daily_level_measure_url": "http://environment.data.gov.uk/hydrology/id/measures/6c6c174e-519f-4b02-9e3e-1737f2139417_445508-level-min-86400-m-qualified"}, {"station_ref": "F2206", "label": "Kilgram Bridge", "lat": 54.26919, "lon": -1.708807, "catchment": null, "daily_level_measure_url": "http://environment.data.gov.uk/hydrology/id/measures/41d13879-a145-4975-83bc-1aa9878d2fb5-level-min-86400-m-qualified"}, {"station_ref": "4074", "label": "Kegworth", "lat": 52.831572, "lon": -1.271689, "catchment": null, "daily_level_measure_url": "http://environment.data.gov.uk/hydrology/id/measures/63b8893e-1cef-40bc-8755-c0c4fe3e69dd-level-min-86400-m-qualified"}, {"station_ref": "023008", "label": "Rede Bridge", "lat": 55.143073, "lon": -2.208034, "catchment": null, "daily_level_measure_url": "http://environment.data.gov.uk/hydrology/id/measures/127b5107-82fb-4e10-a15d-77ac7766422d-level-min-86400-m-qualified"}, {"station_ref": "744312", "label": "Braystones", "lat": 54.440158, "lon": -3.529373, "catchment": null, "daily_level_measure_url": "http://environment.data.gov.uk/hydrology/id/measures/42968a1f-9f4e-4162-896d-39acbb55e58b-level-max-86400-m-qualified"}, {"station_ref": "3069TH", "label": "Bramley", "lat": 51.206851, "lon": -0.570321, "catchment": null, "daily_level_measure_url": "http://environment.data.gov.uk/hydrology/id/measures/971d4ec4-1147-40dd-b03d-a616a02b7817-level-max-86400-m-qualified"}, {"station_ref": "45121", "label": "Brushford", "lat": 51.021811, "lon": -3.531302, "catchment": null, "daily_level_measure_url": "http://environment.data.gov.uk/hydrology/id/measures/4b146acd-5118-4e14-b23a-13405168a010-level-max-86400-m-qualified"}, {"station_ref": "F1003", "label": "Huddersfield Queens Mill", "lat": 53.6381, "lon": -1.786263, "catchment": null, "daily_level_measure_url": "http://environment.data.gov.uk/hydrology/id/measures/8f2b54dc-b425-4a05-a100-0ea06f4ba248-level-max-86400-m-qualified"}, {"station_ref": "E2662", "label": "Harrowden", "lat": 52.331972, "lon": -0.68182, "catchment": null, "daily_level_measure_url": "http://environment.data.gov.uk/hydrology/id/measures/ddd4ea67-eff3-47b8-972c-dc5239620add-level-min-86400-m-qualified"}, {"station_ref": "46118", "label": "Ermington", "lat": 50.363155, "lon": -3.911239, "catchment": null, "daily_level_measure_url": "http://environment.data.gov.uk/hydrology/id/measures/588e6dc1-a77f-4961-9085-4b2617acb48e-level-min-86400-m-qualified"}, {"station_ref": "E1245", "label": "Stainfield Beck", "lat": 53.250424, "lon": -0.312919, "catchment": null, "daily_level_measure_url": "http://environment.data.gov.uk/hydrology/id/measures/72f71a49-eabf-4155-91da-3b4342731f42-level-max-86400-m-qualified"}, {"station_ref": "720215", "label": "A6 Brock Upstream", "lat": 53.858856, "lon": -2.742941, "catchment": null, "daily_level_measure_url": "http://environment.data.gov.uk/hydrology/id/measures/0b2ad98d-d131-4233-9edc-f57be0b4ae31-level-max-86400-m-qualified"}, {"station_ref": "47141", "label": "Tideford", "lat": 50.413192, "lon": -4.331163, "catchment": null, "daily_level_measure_url": "http://environment.data.gov.uk/hydrology/id/measures/3c58b9ab-5818-42af-8194-ed5fe9655142-level-min-86400-m-qualified"}, {"station_ref": "4012", "label": "Yoxall", "lat": 52.756966, "lon": -1.805621, "catchment": null, "daily_level_measure_url": "http://environment.data.gov.uk/hydrology/id/measures/24cb6c6b-c859-4a45-b651-1468b010af70-level-min-86400-m-qualified"}, {"station_ref": "0260TH", "label": "Cirencester", "lat": 51.724478, "lon": -1.97225, "catchment": null, "daily_level_measure_url": "http://environment.data.gov.uk/hydrology/id/measures/60914c18-1838-43e3-92c3-62765dfc7a99-level-min-86400-m-qualified"}, {"station_ref": "53135", "label": "Fosseway", "lat": 51.582035, "lon": -2.15812, "catchment": null, "daily_level_measure_url": "http://environment.data.gov.uk/hydrology/id/measures/53450672-fa32-414b-888a-fc5480aaf67d-level-min-86400-m-qualified"}, {"station_ref": "53138", "label": "Brislington", "lat": 51.431108, "lon": -2.553576, "catchment": null, "daily_level_measure_url": "http://environment.data.gov.uk/hydrology/id/measures/18142c4b-ecf0-497c-ac4b-ccaef45aefc1-level-max-86400-m-qualified"}, {"station_ref": "F2470", "label": "Huntington", "lat": 53.981457, "lon": -1.067671, "catchment": null, "daily_level_measure_url": "http://environment.data.gov.uk/hydrology/id/measures/7337c648-a4bf-4f8b-80c2-2b17efdba8cd-level-min-86400-m-qualified"}, {"station_ref": "F1806", "label": "Beal", "lat": 53.722944, "lon": -1.197656, "catchment": null, "daily_level_measure_url": "http://environment.data.gov.uk/hydrology/id/measures/daa47a41-8f5a-4edb-9840-e0a13533cc64-level-max-86400-m-qualified"}, {"station_ref": "2239TH", "label": "Hungerford", "lat": 51.414788, "lon": -1.539372, "catchment": null, "daily_level_measure_url": "http://environment.data.gov.uk/hydrology/id/measures/78df8fd0-4075-4296-8187-b25f3c53de52-level-min-86400-m-qualified"}, {"station_ref": "2859TH", "label": "Rickmansworth", "lat": 51.641989, "lon": -0.46125, "catchment": null, "daily_level_measure_url": "http://environment.data.gov.uk/hydrology/id/measures/b0a28c3c-b5dc-4a94-a661-2ef0639049c7-level-min-86400-m-qualified"}, {"station_ref": "F2830", "label": "Thornton Lock", "lat": 53.890459, "lon": -0.844165, "catchment": null, "daily_level_measure_url": "http://environment.data.gov.uk/hydrology/id/measures/d42b68be-0da7-4519-ba9a-e24f789d9c10-level-max-86400-m-qualified"}, {"station_ref": "5550TH", "label": "Gaynes Park", "lat": 51.553141, "lon": 0.236647, "catchment": null, "daily_level_measure_url": "http://environment.data.gov.uk/hydrology/id/measures/d0bdea3c-41c2-4ad7-8b19-28f968b4ce61-level-min-86400-m-qualified"}, {"station_ref": "4002", "label": "Hamstall Ridware", "lat": 52.770052, "lon": -1.839949, "catchment": null, "daily_level_measure_url": "http://environment.data.gov.uk/hydrology/id/measures/a360ba77-5ae2-465f-9808-26fc197adde6-level-min-86400-m-qualified"}, {"station_ref": "49132", "label": "Trebrownbridge", "lat": 50.410438, "lon": -4.394536, "catchment": null, "daily_level_measure_url": "http://environment.data.gov.uk/hydrology/id/measures/b6cc814c-4b13-4645-89ee-25e8e3d79dc0-level-min-86400-m-qualified"}, {"station_ref": "48173", "label": "Penberth", "lat": 50.050073, "lon": -5.633119, "catchment": null, "daily_level_measure_url": "http://environment.data.gov.uk/hydrology/id/measures/4ced4530-229b-4bca-8723-003040a6d40a-level-max-86400-m-qualified"}, {"station_ref": null, "label": "Somerford", "lat": 50.739803, "lon": -1.741067, "catchment": null, "daily_level_measure_url": "http://environment.data.gov.uk/hydrology/id/measures/84b5acac-c528-4115-9d61-382762a52e99-level-max-86400-m-qualified"}, {"station_ref": "F1503", "label": "Kildwick", "lat": 53.9073, "lon": -1.984643, "catchment": null, "daily_level_measure_url": "http://environment.data.gov.uk/hydrology/id/measures/351f05c7-7a89-46c0-9d8a-dc56c5f7b42d-level-max-86400-m-qualified"}, {"station_ref": "53125", "label": "Compton Dando", "lat": 51.380453, "lon": -2.507113, "catchment": null, "daily_level_measure_url": "http://environment.data.gov.uk/hydrology/id/measures/9796dc02-6edf-4392-b727-0d861cbb1edd-level-min-86400-m-qualified"}, {"station_ref": "740101", "label": "Ulpha", "lat": 54.341859, "lon": -3.218047, "catchment": null, "daily_level_measure_url": "http://environment.data.gov.uk/hydrology/id/measures/34f4e53b-4616-4aaa-b8ad-170c22c808c4-level-min-86400-m-qualified"}, {"station_ref": "51104", "label": "Allerford", "lat": 51.211718, "lon": -3.569336, "catchment": null, "daily_level_measure_url": "http://environment.data.gov.uk/hydrology/id/measures/00ea663a-3d89-4f10-a22d-17f07465cebc-level-max-86400-m-qualified"}, {"station_ref": "49182", "label": "Bodmin Dunmere", "lat": 50.474183, "lon": -4.757174, "catchment": null, "daily_level_measure_url": "http://environment.data.gov.uk/hydrology/id/measures/e574cb25-00e0-4d39-a8b4-da06d1f173ce-level-max-86400-m-qualified"}, {"station_ref": "4032", "label": "Church Warsop", "lat": 53.206178, "lon": -1.165341, "catchment": null, "daily_level_measure_url": "http://environment.data.gov.uk/hydrology/id/measures/60ce0c60-fc75-4465-8170-938241cd4424-level-min-86400-m-qualified"}, {"station_ref": "4730TH", "label": "Whitwell", "lat": 51.876889, "lon": -0.28128, "catchment": null, "daily_level_measure_url": "http://environment.data.gov.uk/hydrology/id/measures/3281b3cf-9010-4f38-8fec-8f8ba1343ea3-level-min-86400-m-qualified"}, {"station_ref": "F1385", "label": "Northorpe", "lat": 53.685171, "lon": -1.661155, "catchment": null, "daily_level_measure_url": "http://environment.data.gov.uk/hydrology/id/measures/280e15ee-d656-40f0-be7a-a144770a6744-level-max-86400-m-qualified"}, {"station_ref": "E22344", "label": "Arlesey", "lat": 52.026597, "lon": -0.266888, "catchment": null, "daily_level_measure_url": "http://environment.data.gov.uk/hydrology/id/measures/35d60d64-c511-444d-90bc-c5659d860583-level-max-86400-m-qualified"}, {"station_ref": "53155", "label": "Bradford On Avon", "lat": 51.342781, "lon": -2.266665, "catchment": null, "daily_level_measure_url": "http://environment.data.gov.uk/hydrology/id/measures/585e49e0-7070-4d85-9c52-ccd18a5a1e65-level-max-86400-m-qualified"}, {"station_ref": "47117", "label": "Gunnislake", "lat": 50.531269, "lon": -4.221847, "catchment": null, "daily_level_measure_url": "http://environment.data.gov.uk/hydrology/id/measures/575d64ff-3205-4213-abe9-ed455d9bc49f-level-max-86400-m-qualified"}, {"station_ref": "53122", "label": "Trowbridge", "lat": 51.319949, "lon": -2.210367, "catchment": null, "daily_level_measure_url": "http://environment.data.gov.uk/hydrology/id/measures/f48b6a3b-96f0-40cf-9f97-22d0ba05652b-level-min-86400-m-qualified"}, {"station_ref": "E2300", "label": "Burton Coggles", "lat": 52.82349, "lon": -0.537135, "catchment": null, "daily_level_measure_url": "http://environment.data.gov.uk/hydrology/id/measures/c7e13884-4a02-4df3-b184-09aea28cf8e8-level-max-86400-m-qualified"}, {"station_ref": "E21050", "label": "Castle Rising", "lat": 52.798728, "lon": 0.490559, "catchment": null, "daily_level_measure_url": "http://environment.data.gov.uk/hydrology/id/measures/3d92eb2a-bb11-4519-980b-4ca2700e980b-level-min-86400-m-qualified"}, {"station_ref": "52114", "label": "Ashford Mill", "lat": 50.964864, "lon": -2.911994, "catchment": null, "daily_level_measure_url": "http://environment.data.gov.uk/hydrology/id/measures/404429da-b05c-4c95-98ee-4941b2133cb6-level-max-86400-m-qualified"}, {"station_ref": "2092", "label": "Shipston", "lat": 52.062415, "lon": -1.621546, "catchment": null, "daily_level_measure_url": "http://environment.data.gov.uk/hydrology/id/measures/5e6d925f-3102-444c-a748-1dbec611e1dc-level-max-86400-m-qualified"}, {"station_ref": "681006", "label": "Congleton Park", "lat": 53.16629, "lon": -2.209408, "catchment": null, "daily_level_measure_url": "http://environment.data.gov.uk/hydrology/id/measures/a49bd26a-9ea4-47ec-b7ab-3a5ceb369e70-level-max-86400-m-qualified"}, {"station_ref": "735226", "label": "Eel House Bridge", "lat": 54.338025, "lon": -2.970931, "catchment": null, "daily_level_measure_url": "http://environment.data.gov.uk/hydrology/id/measures/e8f318af-7c16-40c2-a2a2-c723e1c21eee-level-max-86400-m-qualified"}, {"station_ref": "2849TH", "label": "Croxley Green", "lat": 51.645553, "lon": -0.436992, "catchment": null, "daily_level_measure_url": "http://environment.data.gov.uk/hydrology/id/measures/624d4674-67a2-4537-874a-235e8958203a-level-min-86400-m-qualified"}, {"station_ref": "2700TH", "label": "Windsor", "lat": 51.485663, "lon": -0.589344, "catchment": null, "daily_level_measure_url": "http://environment.data.gov.uk/hydrology/id/measures/6c72f76a-b76c-4a28-8701-71cdca25c0f5-level-max-86400-m-qualified"}, {"station_ref": "1437TH", "label": "Bodicote", "lat": 52.02859, "lon": -1.326823, "catchment": null, "daily_level_measure_url": "http://environment.data.gov.uk/hydrology/id/measures/cc0cedad-23fc-4893-b83c-1f47871293bd-level-min-86400-m-qualified"}, {"station_ref": "763117", "label": "Coal Burn", "lat": 55.09346, "lon": -2.481494, "catchment": null, "daily_level_measure_url": "http://environment.data.gov.uk/hydrology/id/measures/0a8b3311-f905-40e3-9516-823b7eb8a946-level-max-86400-m-qualified"}, {"station_ref": "760101", "label": "Kirkby Stephen", "lat": 54.482067, "lon": -2.351872, "catchment": null, "daily_level_measure_url": "http://environment.data.gov.uk/hydrology/id/measures/ac26cd8b-faa1-428c-9b71-267005839f70-level-min-86400-m-qualified"}, {"station_ref": "3400TH", "label": "Kingston", "lat": 51.415482, "lon": -0.307629, "catchment": null, "daily_level_measure_url": "http://environment.data.gov.uk/hydrology/id/measures/8496ce69-482c-406a-a2f0-ac418ef8f099-level-min-86400-m-qualified"}, {"station_ref": "761260", "label": "Bampton Grange", "lat": 54.555648, "lon": -2.743525, "catchment": null, "daily_level_measure_url": "http://environment.data.gov.uk/hydrology/id/measures/029d4a8c-45f6-4c66-8a23-1785a26aa017-level-min-86400-m-qualified"}, {"station_ref": "2279TH", "label": "Brimpton", "lat": 51.379163, "lon": -1.185506, "catchment": null, "daily_level_measure_url": "http://environment.data.gov.uk/hydrology/id/measures/e18394ec-4cb0-4fd6-b078-f2686bdac694-level-max-86400-m-qualified"}, {"station_ref": "F2505", "label": "Ness", "lat": 54.203804, "lon": -0.93696, "catchment": null, "daily_level_measure_url": "http://environment.data.gov.uk/hydrology/id/measures/af5d4468-4d94-49ce-bca2-8b4f73648d71-level-max-86400-m-qualified"}, {"station_ref": "700325", "label": "Wigan", "lat": 53.549186, "lon": -2.626059, "catchment": null, "daily_level_measure_url": "http://environment.data.gov.uk/hydrology/id/measures/e7bc8b2f-525b-4f1f-902d-6398a291f85f-level-max-86400-m-qualified"}, {"station_ref": "4023", "label": "Ashford", "lat": 53.223891, "lon": -1.728027, "catchment": null, "daily_level_measure_url": "http://environment.data.gov.uk/hydrology/id/measures/951e3a10-1d16-4526-b767-e5056724b5b6-level-min-86400-m-qualified"}, {"station_ref": "E11301", "label": "North Fareham", "lat": 50.863669, "lon": -1.166624, "catchment": null, "daily_level_measure_url": "http://environment.data.gov.uk/hydrology/id/measures/4d693468-3dc8-4013-9fe9-a8125199be8c-level-max-86400-m-qualified"}, {"station_ref": "2002", "label": "Evesham", "lat": 52.091994, "lon": -1.94292, "catchment": null, "daily_level_measure_url": "http://environment.data.gov.uk/hydrology/id/measures/bbaa85be-3a06-4d2b-b5ad-7f1f55b6554d-level-max-86400-m-qualified"}, {"station_ref": "F2311", "label": "Cundall Bat Bridge", "lat": 54.146044, "lon": -1.359677, "catchment": null, "daily_level_measure_url": "http://environment.data.gov.uk/hydrology/id/measures/9eb75798-aa46-40f5-b9c7-7fd7b919087d-level-max-86400-m-qualified"}, {"station_ref": "49128", "label": "Colliford Weir", "lat": 50.509842, "lon": -4.568841, "catchment": null, "daily_level_measure_url": "http://environment.data.gov.uk/hydrology/id/measures/9cba8a99-f947-4661-8745-3cf4350dfda5-level-min-86400-m-qualified"}, {"station_ref": "4008", "label": "Rocester Dove", "lat": 52.954325, "lon": -1.834061, "catchment": null, "daily_level_measure_url": "http://environment.data.gov.uk/hydrology/id/measures/d173a23d-0450-4ca0-8aae-0524490e9d75-level-max-86400-m-qualified"}, {"station_ref": "735430", "label": "Newby Bridge", "lat": 54.268069, "lon": -2.974952, "catchment": null, "daily_level_measure_url": "http://environment.data.gov.uk/hydrology/id/measures/c9fb80f4-1454-40ca-a87e-da4a12ea76fa-level-max-86400-m-qualified"}, {"station_ref": "E23151", "label": "Farnham", "lat": 52.188641, "lon": 1.451352, "catchment": null, "daily_level_measure_url": "http://environment.data.gov.uk/hydrology/id/measures/49aac0d2-d8f1-464f-989c-2564e4891401-level-min-86400-m-qualified"}, {"station_ref": "47118", "label": "Horrabridge", "lat": 50.509853, "lon": -4.098343, "catchment": null, "daily_level_measure_url": "http://environment.data.gov.uk/hydrology/id/measures/3f823183-2275-444a-9896-981be95ff3bf-level-max-86400-m-qualified"}, {"station_ref": "023001", "label": "Bywell", "lat": 54.949776, "lon": -1.94043, "catchment": null, "daily_level_measure_url": "http://environment.data.gov.uk/hydrology/id/measures/e786e60f-a0f1-4955-aa57-f22ba39c7427-level-min-86400-m-qualified"}, {"station_ref": "2603", "label": "Cambridge", "lat": 51.730333, "lon": -2.362289, "catchment": null, "daily_level_measure_url": "http://environment.data.gov.uk/hydrology/id/measures/3a387080-0ead-4df7-9d77-e7374f796d60-level-max-86400-m-qualified"}, {"station_ref": "2104", "label": "Broom", "lat": 52.180399, "lon": -1.875079, "catchment": null, "daily_level_measure_url": "http://environment.data.gov.uk/hydrology/id/measures/2ddf72d2-6461-4e9b-bc86-201fbd68e6d2-level-max-86400-m-qualified"}, {"station_ref": "F3808", "label": "Easby", "lat": 54.470167, "lon": -1.099385, "catchment": null, "daily_level_measure_url": "http://environment.data.gov.uk/hydrology/id/measures/5b9e9503-32e2-46ea-a713-be0f283c23be-level-max-86400-m-qualified"}, {"station_ref": "692524", "label": "Brinksway", "lat": 53.407, "lon": -2.17491, "catchment": null, "daily_level_measure_url": "http://environment.data.gov.uk/hydrology/id/measures/b27ced8c-bf7d-4d8f-8148-f590ccc35f4c-level-min-86400-m-qualified"}, {"station_ref": "2050", "label": "Eathorpe", "lat": 52.31619, "lon": -1.431452, "catchment": null, "daily_level_measure_url": "http://environment.data.gov.uk/hydrology/id/measures/aef77f8a-7da4-4dae-84ea-88f643d8e00d-level-min-86400-m-qualified"}, {"station_ref": null, "label": "Deerhurst", "lat": 51.969234, "lon": -2.193572, "catchment": null, "daily_level_measure_url": "http://environment.data.gov.uk/hydrology/id/measures/fcb795f4-07bc-4ae0-8372-041644e7f275-level-min-86400-m-qualified"}, {"station_ref": "4046", "label": "Izaak Walton", "lat": 53.056088, "lon": -1.7819, "catchment": null, "daily_level_measure_url": "http://environment.data.gov.uk/hydrology/id/measures/73ee60b4-ef40-4579-a060-db2312ea3ce1-level-min-86400-m-qualified"}, {"station_ref": "47124", "label": "Hayne Bridge", "lat": 50.65805, "lon": -4.242004, "catchment": null, "daily_level_measure_url": "http://environment.data.gov.uk/hydrology/id/measures/dbc64462-fd71-4527-995e-7ba62c05b63c-level-max-86400-m-qualified"}, {"station_ref": "E12801", "label": "Drove Lane Main", "lat": 51.089905, "lon": -1.181314, "catchment": null, "daily_level_measure_url": "http://environment.data.gov.uk/hydrology/id/measures/2bae7d6b-cd13-4db3-b2e2-aae042af76e3-level-max-86400-m-qualified"}, {"station_ref": "50116", "label": "Torrington", "lat": 50.946929, "lon": -4.137288, "catchment": null, "daily_level_measure_url": "http://environment.data.gov.uk/hydrology/id/measures/d2d2a44c-25cb-4b0d-b4a5-4929e1d11975-level-max-86400-m-qualified"}, {"station_ref": "43120", "label": "Nunton Bridge", "lat": 51.036463, "lon": -1.771751, "catchment": null, "daily_level_measure_url": "http://environment.data.gov.uk/hydrology/id/measures/3df68add-46f9-42e7-8439-290f63e195cd-level-min-86400-m-qualified"}, {"station_ref": "4053", "label": "Penkridge", "lat": 52.727473, "lon": -2.117061, "catchment": null, "daily_level_measure_url": "http://environment.data.gov.uk/hydrology/id/measures/d67c086f-ceb4-48a8-badc-042f2fa0ee1f-level-min-86400-m-qualified"}, {"station_ref": "724326", "label": "Wennington", "lat": 54.125423, "lon": -2.591307, "catchment": null, "daily_level_measure_url": "http://environment.data.gov.uk/hydrology/id/measures/8b386e12-f3d1-4a0b-9e01-3d4367bc9bc1-level-min-86400-m-qualified"}, {"station_ref": "E12442", "label": "Highbridge", "lat": 50.990385, "lon": -1.335534, "catchment": null, "daily_level_measure_url": "http://environment.data.gov.uk/hydrology/id/measures/e9c72be8-dea1-4a5d-8af7-05dce5f419ee-level-min-86400-m-qualified"}, {"station_ref": "43123", "label": "East Mills Flume", "lat": 50.928396, "lon": -1.77706, "catchment": null, "daily_level_measure_url": "http://environment.data.gov.uk/hydrology/id/measures/481f8042-997a-44cc-b425-51340d4cee9c-level-max-86400-m-qualified"}, {"station_ref": "2200TH", "label": "Reading", "lat": 51.46101, "lon": -0.967862, "catchment": null, "daily_level_measure_url": "http://environment.data.gov.uk/hydrology/id/measures/f44bf96d-3953-4fec-88bd-30ef4e12e523-level-max-86400-m-qualified"}, {"station_ref": "53153", "label": "Rodbourne", "lat": 51.555123, "lon": -2.091808, "catchment": null, "daily_level_measure_url": "http://environment.data.gov.uk/hydrology/id/measures/3bf40265-657a-44f4-90e3-e1e437d3c801-level-min-86400-m-qualified"}, {"station_ref": "531158", "label": "St Johns Weir", "lat": 51.580683, "lon": -2.094486, "catchment": null, "daily_level_measure_url": "http://environment.data.gov.uk/hydrology/id/measures/e3a8de3e-3bb5-482e-a558-baec0dd88194-level-max-86400-m-qualified"}, {"station_ref": "44120", "label": "Burton Bradstock", "lat": 50.701634, "lon": -2.725794, "catchment": null, "daily_level_measure_url": "http://environment.data.gov.uk/hydrology/id/measures/93cd0262-1cf7-45ac-8491-c9815c7fe710_FW-level-max-86400-m-qualified"}, {"station_ref": "022007", "label": "Mitford", "lat": 55.166104, "lon": -1.727492, "catchment": null, "daily_level_measure_url": "http://environment.data.gov.uk/hydrology/id/measures/9af510f4-5629-465b-81a9-855274a8750a-level-max-86400-m-qualified"}, {"station_ref": "E1228", "label": "Pointon Little Wisbech", "lat": 52.866873, "lon": -0.325877, "catchment": null, "daily_level_measure_url": "http://environment.data.gov.uk/hydrology/id/measures/6b0cab32-b905-4f3c-a554-cd5176c5d2e4-level-min-86400-m-qualified"}, {"station_ref": "735022", "label": "Miller Bridge House", "lat": 54.429259, "lon": -2.970683, "catchment": null, "daily_level_measure_url": "http://environment.data.gov.uk/hydrology/id/measures/a9417599-e466-4b53-babe-0c81229c4328-level-min-86400-m-qualified"}, {"station_ref": "E22889", "label": ["Beach'S Mill", "Beach's Mill"], "lat": 51.737703, "lon": 0.446302, "catchment": null, "daily_level_measure_url": "http://environment.data.gov.uk/hydrology/id/measures/fcdd7420-c000-4db7-99fa-3835a65372fe-level-max-86400-m-qualified"}, {"station_ref": "4827TH", "label": "Bragbury Park", "lat": 51.874477, "lon": -0.149495, "catchment": null, "daily_level_measure_url": "http://environment.data.gov.uk/hydrology/id/measures/7765d509-e68b-4ede-8924-42b8bc5bf2a1-level-max-86400-m-qualified"}, {"station_ref": "692348", "label": "Goytside Farm", "lat": 53.357485, "lon": -1.996738, "catchment": null, "daily_level_measure_url": "http://environment.data.gov.uk/hydrology/id/measures/b0166a7b-cf7c-4ada-8688-deaa14a01898-level-max-86400-m-qualified"}, {"station_ref": "E13540", "label": "Dunbridge", "lat": 51.034159, "lon": -1.548188, "catchment": null, "daily_level_measure_url": "http://environment.data.gov.uk/hydrology/id/measures/0e47ccb4-c070-4b46-8885-f3168aa864d5-level-max-86400-m-qualified"}, {"station_ref": "F2306", "label": "Catterick Bridge", "lat": 54.388806, "lon": -1.653202, "catchment": null, "daily_level_measure_url": "http://environment.data.gov.uk/hydrology/id/measures/2d12f3ed-1ff2-4622-9d7d-bd6483bd1e4f-level-max-86400-m-qualified"}, {"station_ref": "693333", "label": "Stanneylands", "lat": 53.343667, "lon": -2.232387, "catchment": null, "daily_level_measure_url": "http://environment.data.gov.uk/hydrology/id/measures/d69fc777-cc14-47e1-993f-283e08920328-level-max-86400-m-qualified"}, {"station_ref": "2133", "label": "Wyre Piddle", "lat": 52.126787, "lon": -2.056054, "catchment": null, "daily_level_measure_url": "http://environment.data.gov.uk/hydrology/id/measures/51190ba2-682a-493c-bf93-918c8221d81e-level-max-86400-m-qualified"}, {"station_ref": "53154", "label": "Crabb Mill", "lat": 51.577991, "lon": -2.075259, "catchment": null, "daily_level_measure_url": "http://environment.data.gov.uk/hydrology/id/measures/f02dce57-8c7c-4741-941e-9638164be462-level-min-86400-m-qualified"}, {"station_ref": "2884", "label": "Burlington Pool", "lat": 52.695775, "lon": -2.324588, "catchment": null, "daily_level_measure_url": "http://environment.data.gov.uk/hydrology/id/measures/668ae9bb-cd78-49d1-a116-b4857439fa0a-level-max-86400-m-qualified"}, {"station_ref": "724427", "label": "Wray", "lat": 54.105893, "lon": -2.605742, "catchment": null, "daily_level_measure_url": "http://environment.data.gov.uk/hydrology/id/measures/fe864cfb-0782-4369-8343-951e2ad01992-level-max-86400-m-qualified"}, {"station_ref": "2011", "label": "Harford Hill", "lat": 52.255419, "lon": -2.193836, "catchment": null, "daily_level_measure_url": "http://environment.data.gov.uk/hydrology/id/measures/dd3c856a-bb15-42d0-bbf4-d0a816f20946-level-max-86400-m-qualified"}, {"station_ref": "4939TH", "label": "Griggs Bridge", "lat": 51.904243, "lon": 0.020897, "catchment": null, "daily_level_measure_url": "http://environment.data.gov.uk/hydrology/id/measures/49ef0934-49fa-4150-b1d2-83b14f6e3724-level-max-86400-m-qualified"}, {"station_ref": "F2313", "label": "Dalton", "lat": 54.183461, "lon": -1.354886, "catchment": null, "daily_level_measure_url": "http://environment.data.gov.uk/hydrology/id/measures/a2240676-e92d-4ba4-97dc-30056b152269-level-min-86400-m-qualified"}, {"station_ref": "024009", "label": "Chester Le Street", "lat": 54.855018, "lon": -1.560651, "catchment": null, "daily_level_measure_url": "http://environment.data.gov.uk/hydrology/id/measures/e7d8bbb6-5bba-4057-9f49-a299482c3348-level-min-86400-m-qualified"}, {"station_ref": "F2570", "label": "Cherrytree Farm", "lat": 54.30374, "lon": -1.000286, "catchment": null, "daily_level_measure_url": "http://environment.data.gov.uk/hydrology/id/measures/fce4a0d2-2406-4c67-8bf4-35cd091e6545-level-max-86400-m-qualified"}, {"station_ref": "4142", "label": "Quixhill", "lat": 52.976922, "lon": -1.860483, "catchment": null, "daily_level_measure_url": "http://environment.data.gov.uk/hydrology/id/measures/f06167e7-dd9e-4ce6-81c8-176d2d8b706d-level-max-86400-m-qualified"}, {"station_ref": "3074TH", "label": "Albury", "lat": 51.211031, "lon": -0.504721, "catchment": null, "daily_level_measure_url": "http://environment.data.gov.uk/hydrology/id/measures/a185e5ce-932f-40ae-a90f-6e77f1341e8e-level-max-86400-m-qualified"}, {"station_ref": "4015", "label": "Mattersey", "lat": 53.398039, "lon": -0.96352, "catchment": null, "daily_level_measure_url": "http://environment.data.gov.uk/hydrology/id/measures/155b4b28-40ae-48fa-b112-f442b74b8e8a-level-min-86400-m-qualified"}, {"station_ref": "2841TH", "label": "Bury Mill", "lat": 51.757619, "lon": -0.475391, "catchment": null, "daily_level_measure_url": "http://environment.data.gov.uk/hydrology/id/measures/d21f1e9f-b6ba-4491-b6cf-faf227813d47-level-min-86400-m-qualified"}, {"station_ref": "49130", "label": "Gwills", "lat": 50.393097, "lon": -5.056267, "catchment": null, "daily_level_measure_url": "http://environment.data.gov.uk/hydrology/id/measures/6afb7ae1-8e82-402d-ac57-d5f658c6d114-level-max-86400-m-qualified"}, {"station_ref": "4043", "label": "Chatsworth", "lat": 53.211702, "lon": -1.611159, "catchment": null, "daily_level_measure_url": "http://environment.data.gov.uk/hydrology/id/measures/02ae6414-2983-456e-9d77-9289a9e40ec7-level-max-86400-m-qualified"}, {"station_ref": "45119", "label": "Woodmill", "lat": 50.843162, "lon": -3.39234, "catchment": null, "daily_level_measure_url": "http://environment.data.gov.uk/hydrology/id/measures/d2dcdeb9-5c08-471b-8d86-e0e1bc1d4c9c-level-max-86400-m-qualified"}, {"station_ref": "F2002", "label": "Tadcaster", "lat": 53.891069, "lon": -1.275556, "catchment": null, "daily_level_measure_url": "http://environment.data.gov.uk/hydrology/id/measures/b9933a62-f326-4d77-9206-ebb335161831-level-max-86400-m-qualified"}, {"station_ref": "762505", "label": "Great Corby", "lat": 54.889932, "lon": -2.830506, "catchment": null, "daily_level_measure_url": "http://environment.data.gov.uk/hydrology/id/measures/244c170e-922f-4e33-8b7d-d02dd50888d3-level-max-86400-m-qualified"}, {"station_ref": "E4341", "label": "Wye", "lat": 51.185494, "lon": 0.9303, "catchment": null, "daily_level_measure_url": "http://environment.data.gov.uk/hydrology/id/measures/54d2b82b-cd8a-4fae-bde4-c11d9fb80af7-level-max-86400-m-qualified"}, {"station_ref": "E12781", "label": "Sewards Bridge", "lat": 51.086567, "lon": -1.182387, "catchment": null, "daily_level_measure_url": "http://environment.data.gov.uk/hydrology/id/measures/a3c4766d-b704-4819-913b-0be1d2ed7b3a-level-max-86400-m-qualified"}, {"station_ref": "E22539", "label": "Westmill", "lat": 52.085246, "lon": 0.665604, "catchment": null, "daily_level_measure_url": "http://environment.data.gov.uk/hydrology/id/measures/bce8bf9b-9b67-4bee-9c90-3c7f65c3444e-level-min-86400-m-qualified"}, {"station_ref": "2617", "label": "Chalford", "lat": 51.723887, "lon": -2.130978, "catchment": null, "daily_level_measure_url": "http://environment.data.gov.uk/hydrology/id/measures/64e8e5a8-214d-403e-8e00-d788ab94947a-level-max-86400-m-qualified"}, {"station_ref": "4026", "label": "Polesworth", "lat": 52.627223, "lon": -1.613106, "catchment": null, "daily_level_measure_url": "http://environment.data.gov.uk/hydrology/id/measures/1b5d160c-b736-4a4b-b8e1-9a6a95d92307-level-max-86400-m-qualified"}, {"station_ref": "710305", "label": "Henthorn", "lat": 53.848003, "lon": -2.424337, "catchment": null, "daily_level_measure_url": "http://environment.data.gov.uk/hydrology/id/measures/3d095df8-dd9d-4b1b-8cb3-39982654c9b4-level-max-86400-m-qualified"}, {"station_ref": "E21713", "label": "Brampton New Weir", "lat": 52.330598, "lon": -0.228202, "catchment": null, "daily_level_measure_url": "http://environment.data.gov.uk/hydrology/id/measures/c4cbc20d-2913-47d5-8d62-a15e65403434-level-max-86400-m-qualified"}, {"station_ref": "50119", "label": "Taw Bridge", "lat": 50.845636, "lon": -3.88636, "catchment": null, "daily_level_measure_url": "http://environment.data.gov.uk/hydrology/id/measures/b7db631d-9aa8-49c1-9a61-b2824d0b42c8-level-min-86400-m-qualified"}, {"station_ref": "4044", "label": "Cuckney", "lat": 53.2366, "lon": -1.145421, "catchment": null, "daily_level_measure_url": "http://environment.data.gov.uk/hydrology/id/measures/70a6e855-44fd-424f-b3e1-b9e46da57f1c-level-max-86400-m-qualified"}, {"station_ref": "4041", "label": "Waterhouses", "lat": 53.048674, "lon": -1.877705, "catchment": null, "daily_level_measure_url": "http://environment.data.gov.uk/hydrology/id/measures/9336811c-2a61-4a07-a5a5-fa21be42137c-level-max-86400-m-qualified"}, {"station_ref": "53130", "label": "Middlehill", "lat": 51.417955, "lon": -2.268742, "catchment": null, "daily_level_measure_url": "http://environment.data.gov.uk/hydrology/id/measures/65d8a904-f927-415c-b501-a4f8e3325e9e-level-min-86400-m-qualified"}, {"station_ref": "055028_TG_9302", "label": "Bishops Frome", "lat": 52.137044, "lon": -2.488459, "catchment": null, "daily_level_measure_url": "http://environment.data.gov.uk/hydrology/id/measures/eeeac5e4-672d-4472-893d-6ce4c6bab120-level-max-86400-m-qualified"}, {"station_ref": "47142", "label": "Tinhay", "lat": 50.647232, "lon": -4.267489, "catchment": null, "daily_level_measure_url": "http://environment.data.gov.uk/hydrology/id/measures/d2cd29dc-cf55-4a2e-9836-7c2ab0f8912c-level-max-86400-m-qualified"}, {"station_ref": "E12412", "label": "Riverside Park", "lat": 50.935768, "lon": -1.368447, "catchment": null, "daily_level_measure_url": "http://environment.data.gov.uk/hydrology/id/measures/58bbe65d-7372-4494-b5fc-c23788787ae7-level-min-86400-m-qualified"}, {"station_ref": "735123", "label": "Jeffy Knotts", "lat": 54.422024, "lon": -2.98839, "catchment": null, "daily_level_measure_url": "http://environment.data.gov.uk/hydrology/id/measures/2e4cd2b4-2d48-4ff5-882c-5ce9638491e9-level-min-86400-m-qualified"}, {"station_ref": "730120", "label": "Bowston", "lat": 54.36176, "lon": -2.771951, "catchment": null, "daily_level_measure_url": "http://environment.data.gov.uk/hydrology/id/measures/7445ef55-5e25-43d9-9e85-83406670fc65-level-min-86400-m-qualified"}, {"station_ref": "730511", "label": "Sedgwick", "lat": 54.280023, "lon": -2.755861, "catchment": null, "daily_level_measure_url": "http://environment.data.gov.uk/hydrology/id/measures/7ffdc72e-bc0c-4172-bfe5-342a11fe53e7-level-max-86400-m-qualified"}, {"station_ref": "2815TH", "label": "Redbourn Ver", "lat": 51.794792, "lon": -0.393076, "catchment": null, "daily_level_measure_url": "http://environment.data.gov.uk/hydrology/id/measures/c18ebd8a-6bed-4687-8b80-0f20e9c2b22b-level-min-86400-m-qualified"}, {"station_ref": "690140", "label": "Irwell Vale", "lat": 53.677543, "lon": -2.317469, "catchment": null, "daily_level_measure_url": "http://environment.data.gov.uk/hydrology/id/measures/23d8a627-dd63-47a1-a3ff-435a573da869-level-max-86400-m-qualified"}, {"station_ref": "3820TH", "label": "Brent Cross", "lat": 51.577539, "lon": -0.217549, "catchment": null, "daily_level_measure_url": "http://environment.data.gov.uk/hydrology/id/measures/fff0c2da-54e5-40af-9618-a97848d71c2e-level-max-86400-m-qualified"}, {"station_ref": "52108", "label": "Greenham", "lat": 50.974522, "lon": -3.313908, "catchment": null, "daily_level_measure_url": "http://environment.data.gov.uk/hydrology/id/measures/02c30d3b-4cab-4632-a4e9-b293706a02fb-level-min-86400-m-qualified"}, {"station_ref": "3839TH", "label": "Wembley", "lat": 51.562196, "lon": -0.27948, "catchment": null, "daily_level_measure_url": "http://environment.data.gov.uk/hydrology/id/measures/24e09f89-9598-468e-bdad-12cd705a93a9-level-max-86400-m-qualified"}, {"station_ref": "2001", "label": "Bewdley", "lat": 52.383072, "lon": -2.321186, "catchment": null, "daily_level_measure_url": "http://environment.data.gov.uk/hydrology/id/measures/8820d897-a09e-4857-8095-5834fee6962f-level-min-86400-m-qualified"}, {"station_ref": "E23730", "label": "Abbey Heath", "lat": 52.425882, "lon": 0.720787, "catchment": null, "daily_level_measure_url": "http://environment.data.gov.uk/hydrology/id/measures/86993eff-b766-4bee-8ef3-e0a738008418-level-max-86400-m-qualified"}, {"station_ref": "52111", "label": "Taunton Market", "lat": 51.020017, "lon": -3.100618, "catchment": null, "daily_level_measure_url": "http://environment.data.gov.uk/hydrology/id/measures/fad760ef-0c6e-48df-a1c5-01d3f471cbb0-level-max-86400-m-qualified"}, {"station_ref": "4091", "label": "Blyth Ryton", "lat": 53.37721, "lon": -1.053168, "catchment": null, "daily_level_measure_url": "http://environment.data.gov.uk/hydrology/id/measures/ae3ba171-5f03-41cb-a4bf-bb8c568b8c1b-level-min-86400-m-qualified"}, {"station_ref": "055018_TG_327", "label": "Yarkhill", "lat": 52.081345, "lon": -2.563485, "catchment": null, "daily_level_measure_url": "http://environment.data.gov.uk/hydrology/id/measures/c19762f5-2d97-4f44-99fe-e54536bf018c-level-max-86400-m-qualified"}, {"station_ref": "47172", "label": "Tavistock Abbey Bridge", "lat": 50.550625, "lon": -4.142658, "catchment": null, "daily_level_measure_url": "http://environment.data.gov.uk/hydrology/id/measures/603fcc73-a9aa-4831-bf66-6a1a2b0a04d7-level-min-86400-m-qualified"}, {"station_ref": "F2760", "label": "Snainton Ings", "lat": 54.202353, "lon": -0.566177, "catchment": null, "daily_level_measure_url": "http://environment.data.gov.uk/hydrology/id/measures/c5b13f08-cdf0-41ab-8bbf-7b8587744459-level-min-86400-m-qualified"}, {"station_ref": "730203", "label": "Sprint Mill", "lat": 54.358126, "lon": -2.748154, "catchment": null, "daily_level_measure_url": "http://environment.data.gov.uk/hydrology/id/measures/2292891b-9138-44a5-a7e1-d31f4c4b7e73-level-min-86400-m-qualified"}, {"station_ref": "F1715", "label": "Oulton Farrer Lane", "lat": 53.748009, "lon": -1.448796, "catchment": null, "daily_level_measure_url": "http://environment.data.gov.uk/hydrology/id/measures/469d01ff-5fcb-4611-a640-812d59f68be6-level-max-86400-m-qualified"}, {"station_ref": "47116", "label": "Lifton Park", "lat": 50.63561, "lon": -4.279531, "catchment": null, "daily_level_measure_url": "http://environment.data.gov.uk/hydrology/id/measures/4938555f-b1ec-4d7c-8c40-211177987e14-level-min-86400-m-qualified"}, {"station_ref": null, "label": "Bowerswain", "lat": 50.889383, "lon": -1.991809, "catchment": null, "daily_level_measure_url": "http://environment.data.gov.uk/hydrology/id/measures/7014b422-27a7-42b6-9619-5cd6fe16e5e7-level-min-86400-m-qualified"}, {"station_ref": "F2902", "label": "Briggswath", "lat": 54.462097, "lon": -0.654478, "catchment": null, "daily_level_measure_url": "http://environment.data.gov.uk/hydrology/id/measures/20940d11-3691-429d-b9e1-62646f8e3e71-level-min-86400-m-qualified"}, {"station_ref": "E22897", "label": "Sandon Bridge", "lat": 51.720483, "lon": 0.53985, "catchment": null, "daily_level_measure_url": "http://environment.data.gov.uk/hydrology/id/measures/4e7e6fd4-ee52-4b9d-aac7-626af67cc5ac-level-max-86400-m-qualified"}, {"station_ref": "692423", "label": "Portwood", "lat": 53.42334, "lon": -2.141961, "catchment": null, "daily_level_measure_url": "http://environment.data.gov.uk/hydrology/id/measures/ed9676ff-3b2e-4282-8a67-6882b2222e02-level-max-86400-m-qualified"}, {"station_ref": "693032", "label": "Little Woolden Hall", "lat": 53.440813, "lon": -2.475817, "catchment": null, "daily_level_measure_url": "http://environment.data.gov.uk/hydrology/id/measures/4c0ab2d3-ff26-47a2-bdce-abfbb07c6e0a-level-min-86400-m-qualified"}, {"station_ref": "F1903", "label": "Addingham", "lat": 53.939703, "lon": -1.862157, "catchment": null, "daily_level_measure_url": "http://environment.data.gov.uk/hydrology/id/measures/f5b37267-c78d-4e3e-9fca-0a380d46ffc8-level-min-86400-m-qualified"}, {"station_ref": "2846TH", "label": "Two Waters Road", "lat": 51.741057, "lon": -0.47337, "catchment": null, "daily_level_measure_url": "http://environment.data.gov.uk/hydrology/id/measures/c357b418-078d-4ac2-9cf3-27eee4c4ab78-level-min-86400-m-qualified"}, {"station_ref": "1489TH", "label": "Islip Weir", "lat": 51.819748, "lon": -1.242338, "catchment": null, "daily_level_measure_url": "http://environment.data.gov.uk/hydrology/id/measures/34e23121-3c10-454d-80dc-45d824b9e2cf-level-max-86400-m-qualified"}, {"station_ref": "46133", "label": "Bovey Parke", "lat": 50.595603, "lon": -3.682853, "catchment": null, "daily_level_measure_url": "http://environment.data.gov.uk/hydrology/id/measures/e3cbc7c6-f62f-4848-9b2c-75e0da09b9a3-level-max-86400-m-qualified"}, {"station_ref": "49129", "label": "De Lank", "lat": 50.55885, "lon": -4.637771, "catchment": null, "daily_level_measure_url": "http://environment.data.gov.uk/hydrology/id/measures/724ddcb2-fed1-4e25-b7b7-055348b41fc2-level-min-86400-m-qualified"}, {"station_ref": "743509", "label": "Calder Hall", "lat": 54.426631, "lon": -3.489083, "catchment": null, "daily_level_measure_url": "http://environment.data.gov.uk/hydrology/id/measures/12ede3c0-861a-45f9-88a8-6170ff13a6ae-level-max-86400-m-qualified"}, {"station_ref": "E23186", "label": "Ingworth", "lat": 52.819451, "lon": 1.251856, "catchment": null, "daily_level_measure_url": "http://environment.data.gov.uk/hydrology/id/measures/895e30b6-b92a-4ef1-8735-e7dbd2dd573f-level-min-86400-m-qualified"}, {"station_ref": "2027", "label": "Ebley Mill", "lat": 51.740081, "lon": -2.247391, "catchment": null, "daily_level_measure_url": "http://environment.data.gov.uk/hydrology/id/measures/f387d5f1-d06d-48fd-92a1-ede9bdebdc10-level-max-86400-m-qualified"}, {"station_ref": "44221", "label": "South House", "lat": 50.790604, "lon": -2.41643, "catchment": null, "daily_level_measure_url": "http://environment.data.gov.uk/hydrology/id/measures/db5a4b77-c057-48a5-a174-f99045ad9bf2-level-min-86400-m-qualified"}, {"station_ref": "021038", "label": "Heaton Mill", "lat": 55.674765, "lon": -2.160907, "catchment": null, "daily_level_measure_url": "http://environment.data.gov.uk/hydrology/id/measures/20152e19-e61b-40ff-ae0a-bfd520b41ad1-level-max-86400-m-qualified"}, {"station_ref": "F3412", "label": "Holme House Farm", "lat": 53.825908, "lon": -0.816848, "catchment": null, "daily_level_measure_url": "http://environment.data.gov.uk/hydrology/id/measures/bce9c8be-26c4-40b1-b852-715b016440e5-level-max-86400-m-qualified"}, {"station_ref": "690205", "label": "Blackford Bridge", "lat": 53.565791, "lon": -2.293258, "catchment": null, "daily_level_measure_url": "http://environment.data.gov.uk/hydrology/id/measures/2530158f-c930-4664-acb5-ce38d19d3bdc-level-min-86400-m-qualified"}, {"station_ref": "F0304", "label": "Woodhouse Mill", "lat": 53.366838, "lon": -1.352044, "catchment": null, "daily_level_measure_url": "http://environment.data.gov.uk/hydrology/id/measures/ccd2dcd2-9439-41e6-9e0a-cf124e772a68-level-max-86400-m-qualified"}, {"station_ref": "E21222", "label": "Quidenham", "lat": 52.450441, "lon": 0.982414, "catchment": null, "daily_level_measure_url": "http://environment.data.gov.uk/hydrology/id/measures/116a4260-8c89-421c-83fd-107fed334eaf-level-min-86400-m-qualified"}, {"station_ref": "E1183", "label": "Jordan", "lat": 52.470319, "lon": -0.909557, "catchment": null, "daily_level_measure_url": "http://environment.data.gov.uk/hydrology/id/measures/9aa20788-e7de-449a-8b6c-2b623ba4d528-level-max-86400-m-qualified"}, {"station_ref": "44206", "label": "Briantspuddle", "lat": 50.739653, "lon": -2.253329, "catchment": null, "daily_level_measure_url": "http://environment.data.gov.uk/hydrology/id/measures/aeb7fc23-8687-4548-9f2f-c21b4cc0e59b-level-max-86400-m-qualified"}, {"station_ref": "E22843", "label": "Churchend", "lat": 51.884909, "lon": 0.36531, "catchment": null, "daily_level_measure_url": "http://environment.data.gov.uk/hydrology/id/measures/279d5197-0819-4a62-89be-0aa177425e62-level-max-86400-m-qualified"}, {"station_ref": "E1776", "label": "Nettleham Beck", "lat": 53.269596, "lon": -0.474867, "catchment": null, "daily_level_measure_url": "http://environment.data.gov.uk/hydrology/id/measures/a941c6ca-6b2e-45b3-a515-198c39d4ceaa-level-min-86400-m-qualified"}, {"station_ref": "47121", "label": "Carnwood", "lat": 50.431758, "lon": -4.083214, "catchment": null, "daily_level_measure_url": "http://environment.data.gov.uk/hydrology/id/measures/e268ebd4-97ae-4e44-857d-d01c4d838027-level-max-86400-m-qualified"}, {"station_ref": "713056", "label": "New Jumbles Rock", "lat": 53.833722, "lon": -2.453428, "catchment": null, "daily_level_measure_url": "http://environment.data.gov.uk/hydrology/id/measures/1a707394-5443-4c2d-b903-8ad6e243a45e-level-min-86400-m-qualified"}, {"station_ref": "43217", "label": "Wincanton A303", "lat": 51.048987, "lon": -2.41251, "catchment": null, "daily_level_measure_url": "http://environment.data.gov.uk/hydrology/id/measures/cea9b5f0-588a-4d9c-a43c-eceffa56b782-level-min-86400-m-qualified"}, {"station_ref": "760112", "label": "Great Musgrave Bridge", "lat": 54.51271, "lon": -2.364692, "catchment": null, "daily_level_measure_url": "http://environment.data.gov.uk/hydrology/id/measures/0cd2802e-cd9a-41f4-abc1-317bf9fd7a1c-level-max-86400-m-qualified"}, {"station_ref": "763308", "label": "Greenholme", "lat": 54.914677, "lon": -2.803045, "catchment": null, "daily_level_measure_url": "http://environment.data.gov.uk/hydrology/id/measures/4d9c9969-529b-4990-850c-3a3cb03eb110-level-max-86400-m-qualified"}, {"station_ref": "5129TH", "label": "Gipsy Lane", "lat": 51.89464, "lon": 0.186331, "catchment": null, "daily_level_measure_url": "http://environment.data.gov.uk/hydrology/id/measures/0f409f22-3a10-4200-a690-c6a72902bbdf-level-min-86400-m-qualified"}, {"station_ref": "024008", "label": "Witton Park", "lat": 54.67286, "lon": -1.733561, "catchment": null, "daily_level_measure_url": "http://environment.data.gov.uk/hydrology/id/measures/05784319-693a-4d75-b29e-32f01a99ee4f-level-max-86400-m-qualified"}, {"station_ref": "53132", "label": "Stanley", "lat": 51.455677, "lon": -2.06563, "catchment": null, "daily_level_measure_url": "http://environment.data.gov.uk/hydrology/id/measures/09aaf1dd-28ea-4230-9670-7709ee7aa970-level-min-86400-m-qualified"}, {"station_ref": "E21604", "label": "South Creake", "lat": 52.884266, "lon": 0.770922, "catchment": null, "daily_level_measure_url": "http://environment.data.gov.uk/hydrology/id/measures/12e41a1b-b72e-4ea2-9a45-ce459d156560-level-min-86400-m-qualified"}, {"station_ref": "445610", "label": "Winterbourne Steepleton", "lat": 50.706036, "lon": -2.525588, "catchment": null, "daily_level_measure_url": "http://environment.data.gov.uk/hydrology/id/measures/c2ced941-2e52-41f7-a7d3-65d3a8064c03-level-max-86400-m-qualified"}, {"station_ref": "690203", "label": "Rochdale", "lat": 53.611067, "lon": -2.178685, "catchment": null, "daily_level_measure_url": "http://environment.data.gov.uk/hydrology/id/measures/0b61ef5d-3db7-42de-ae00-ebd8df2b7312-level-max-86400-m-qualified"}, {"station_ref": "E4222", "label": "Allington", "lat": 52.949749, "lon": -0.703007, "catchment": null, "daily_level_measure_url": "http://environment.data.gov.uk/hydrology/id/measures/68db9881-47c2-4fd3-b08f-738aa59dcc3d-level-max-86400-m-qualified"}, {"station_ref": "5189TH", "label": "Elizabeth Way", "lat": 51.773908, "lon": 0.073644, "catchment": null, "daily_level_measure_url": "http://environment.data.gov.uk/hydrology/id/measures/250bacb0-6ff6-4252-b0ff-e4e3bd2c69ba-level-min-86400-m-qualified"}, {"station_ref": "F0103", "label": "Staveley", "lat": 53.266541, "lon": -1.337413, "catchment": null, "daily_level_measure_url": "http://environment.data.gov.uk/hydrology/id/measures/fee4928e-59c8-4f42-b1b1-9299ae2d71f1-level-max-86400-m-qualified"}, {"station_ref": "3290TH", "label": "Esher", "lat": 51.382361, "lon": -0.376781, "catchment": null, "daily_level_measure_url": "http://environment.data.gov.uk/hydrology/id/measures/024f218d-9a70-43b7-8ea2-7d038eeb2cff-level-min-86400-m-qualified"}, {"station_ref": "43126", "label": "Moyles Court", "lat": 50.873984, "lon": -1.772829, "catchment": null, "daily_level_measure_url": "http://environment.data.gov.uk/hydrology/id/measures/ebc1166c-4d4e-4b0a-ae37-f8463436c5de-level-max-86400-m-qualified"}, {"station_ref": "4369TH", "label": "Sydenham", "lat": 51.435766, "lon": -0.027344, "catchment": null, "daily_level_measure_url": "http://environment.data.gov.uk/hydrology/id/measures/ee1fdcfd-15f4-4a19-8356-acee538ae78d-level-min-86400-m-qualified"}, {"station_ref": "53136", "label": "Brokenborough", "lat": 51.602719, "lon": -2.124926, "catchment": null, "daily_level_measure_url": "http://environment.data.gov.uk/hydrology/id/measures/91375047-e239-472d-93e4-96e1413b5567-level-max-86400-m-qualified"}, {"station_ref": "1020TH", "label": "Bourton-On-The-Water Windrush", "lat": 51.886747, "lon": -1.767867, "catchment": null, "daily_level_measure_url": "http://environment.data.gov.uk/hydrology/id/measures/e9f95177-02be-41bb-8728-40fe217bb6e1-level-min-86400-m-qualified"}, {"station_ref": "F2405", "label": "Skelton", "lat": 53.991268, "lon": -1.134472, "catchment": null, "daily_level_measure_url": "http://environment.data.gov.uk/hydrology/id/measures/213d70b2-894b-406b-9dc3-31d3ccec7f54-level-min-86400-m-qualified"}, {"station_ref": "2067", "label": "Swindon", "lat": 52.512785, "lon": -2.205871, "catchment": null, "daily_level_measure_url": "http://environment.data.gov.uk/hydrology/id/measures/c4239733-713f-419c-a854-26de2cdb7d66-level-max-86400-m-qualified"}, {"station_ref": "E22815", "label": "Appleford Bridge", "lat": 51.810531, "lon": 0.674457, "catchment": null, "daily_level_measure_url": "http://environment.data.gov.uk/hydrology/id/measures/2a87d87d-fcb7-4a46-9363-fd07fb25752a-level-min-86400-m-qualified"}, {"station_ref": "2019", "label": "Stareton", "lat": 52.340881, "lon": -1.512833, "catchment": null, "daily_level_measure_url": "http://environment.data.gov.uk/hydrology/id/measures/2708da58-f4ea-46cb-943a-fcf3fa1ee9bc-level-min-86400-m-qualified"}, {"station_ref": "5190TH", "label": "Roydon Glen Faba", "lat": 51.764828, "lon": 0.015113, "catchment": null, "daily_level_measure_url": "http://environment.data.gov.uk/hydrology/id/measures/d45605aa-9a74-44d7-a684-5c9f3ca763da-level-min-86400-m-qualified"}, {"station_ref": "2034", "label": "Oak Cottage", "lat": 52.385363, "lon": -2.337805, "catchment": null, "daily_level_measure_url": "http://environment.data.gov.uk/hydrology/id/measures/c8f86ce2-0e87-441d-937b-17cce6b52e12-level-min-86400-m-qualified"}, {"station_ref": "E21230", "label": "Redbridge", "lat": 52.492126, "lon": 0.938899, "catchment": null, "daily_level_measure_url": "http://environment.data.gov.uk/hydrology/id/measures/c4914aa1-8d0d-4d70-9918-e760fa9aaf88-level-min-86400-m-qualified"}, {"station_ref": "690206", "label": "Littleborough", "lat": 53.645347, "lon": -2.092047, "catchment": null, "daily_level_measure_url": "http://environment.data.gov.uk/hydrology/id/measures/23312df2-1dd7-41d4-b5e7-fb675bb070c0-level-min-86400-m-qualified"}, {"station_ref": "2134", "label": "Buildwas", "lat": 52.636218, "lon": -2.525182, "catchment": null, "daily_level_measure_url": "http://environment.data.gov.uk/hydrology/id/measures/57e8d163-310e-4d4c-a0f2-86055cc91da0-level-min-86400-m-qualified"}, {"station_ref": "53131", "label": "Bitton", "lat": 51.42692, "lon": -2.459617, "catchment": null, "daily_level_measure_url": "http://environment.data.gov.uk/hydrology/id/measures/d977db74-52e3-46a6-91e8-42aa82d83e68-level-min-86400-m-qualified"}, {"station_ref": "680403", "label": "Marshfield Bridge", "lat": 53.092762, "lon": -2.487721, "catchment": null, "daily_level_measure_url": "http://environment.data.gov.uk/hydrology/id/measures/6655e67c-b0ec-43b4-9ab0-15efa569578a-level-max-86400-m-qualified"}, {"station_ref": "45122", "label": "Pixton", "lat": 51.02311, "lon": -3.519966, "catchment": null, "daily_level_measure_url": "http://environment.data.gov.uk/hydrology/id/measures/34202203-d1dc-4812-843a-715467152795-level-min-86400-m-qualified"}, {"station_ref": "52109", "label": "Bishops Hull", "lat": 51.019008, "lon": -3.133699, "catchment": null, "daily_level_measure_url": "http://environment.data.gov.uk/hydrology/id/measures/d7ea5745-0ca5-40fa-b5c9-3f788256411b-level-min-86400-m-qualified"}, {"station_ref": "2088", "label": "Lilbourne", "lat": 52.39513, "lon": -1.173227, "catchment": null, "daily_level_measure_url": "http://environment.data.gov.uk/hydrology/id/measures/f7897367-bb3b-4599-8184-b8941e889c9c-level-min-86400-m-qualified"}, {"station_ref": "4370TH", "label": "Catford", "lat": 51.441668, "lon": -0.026931, "catchment": null, "daily_level_measure_url": "http://environment.data.gov.uk/hydrology/id/measures/fc5e2495-e6bf-4b91-bf05-547b8ce5fa8c-level-max-86400-m-qualified"}, {"station_ref": "E22103", "label": "Whaddon", "lat": 52.101809, "lon": -0.017376, "catchment": null, "daily_level_measure_url": "http://environment.data.gov.uk/hydrology/id/measures/c15cb7f2-77d1-4cc2-8742-5adead1be2b4-level-min-86400-m-qualified"}, {"station_ref": "E24313", "label": "Little Walsingham", "lat": 52.891864, "lon": 0.874934, "catchment": null, "daily_level_measure_url": "http://environment.data.gov.uk/hydrology/id/measures/af21bf6e-b55d-429b-a3b4-65e372f0cb58-level-max-86400-m-qualified"}, {"station_ref": "4890TH", "label": "Hartham Park", "lat": 51.801234, "lon": -0.079759, "catchment": null, "daily_level_measure_url": "http://environment.data.gov.uk/hydrology/id/measures/a5bf03e9-e63a-4cd5-8bc9-ab64c03808b9-level-max-86400-m-qualified"}, {"station_ref": "E14811", "label": "Carisbrooke", "lat": 50.695132, "lon": -1.306101, "catchment": null, "daily_level_measure_url": "http://environment.data.gov.uk/hydrology/id/measures/3c66c370-e349-4093-a596-9671726bdcba-level-max-86400-m-qualified"}, {"station_ref": "E21720", "label": "Burnt Mill", "lat": 52.151539, "lon": 0.067146, "catchment": null, "daily_level_measure_url": "http://environment.data.gov.uk/hydrology/id/measures/0daf6ff9-34de-454a-acd9-69f7a681231a-level-min-86400-m-qualified"}, {"station_ref": "5380TH", "label": "Low Hall", "lat": 51.574894, "lon": -0.043637, "catchment": null, "daily_level_measure_url": "http://environment.data.gov.uk/hydrology/id/measures/fc053c40-2354-4f94-add2-1aa71fb0afc6-level-max-86400-m-qualified"}, {"station_ref": "750504", "label": "Threlkeld", "lat": 54.61374, "lon": -3.050402, "catchment": null, "daily_level_measure_url": "http://environment.data.gov.uk/hydrology/id/measures/36b31933-6c0f-4c7b-af02-cc18c3f1c198-level-max-86400-m-qualified"}, {"station_ref": "763201", "label": "Hynam Bridge", "lat": 54.894577, "lon": -2.686891, "catchment": null, "daily_level_measure_url": "http://environment.data.gov.uk/hydrology/id/measures/f0718c85-fbe6-4bb5-9a00-91ef53c38567-level-max-86400-m-qualified"}, {"station_ref": "5541TH", "label": "Bretons Farm", "lat": 51.546517, "lon": 0.183966, "catchment": null, "daily_level_measure_url": "http://environment.data.gov.uk/hydrology/id/measures/6dba8818-bd17-424e-8568-eb699874e76a-level-min-86400-m-qualified"}, {"station_ref": "43113", "label": "Amesbury", "lat": 51.171523, "lon": -1.78526, "catchment": null, "daily_level_measure_url": "http://environment.data.gov.uk/hydrology/id/measures/ea442d7a-f666-450a-a04f-449b7aec9edb-level-max-86400-m-qualified"}, {"station_ref": "3870TH", "label": "Greenford", "lat": 51.527366, "lon": -0.344873, "catchment": null, "daily_level_measure_url": "http://environment.data.gov.uk/hydrology/id/measures/77d381c3-f098-4b67-b0d5-0e08a548fe0e-level-max-86400-m-qualified"}, {"station_ref": "2024", "label": "Burcote", "lat": 52.555338, "lon": -2.375983, "catchment": null, "daily_level_measure_url": "http://environment.data.gov.uk/hydrology/id/measures/faba42fb-8de9-4e60-a4f8-47c8271320e3-level-max-86400-m-qualified"}, {"station_ref": "52212", "label": "Fenny Castle", "lat": 51.191645, "lon": -2.719229, "catchment": null, "daily_level_measure_url": "http://environment.data.gov.uk/hydrology/id/measures/d33ce11e-590d-4d44-af55-6a9b0c27e829-level-min-86400-m-qualified"}, {"station_ref": "2129", "label": "Coventry", "lat": 52.417908, "lon": -1.54648, "catchment": null, "daily_level_measure_url": "http://environment.data.gov.uk/hydrology/id/measures/23a70a2d-cdc4-4530-926c-5df5f72561d0-level-max-86400-m-qualified"}, {"station_ref": "F3501", "label": "Broken Scar", "lat": 54.518355, "lon": -1.601051, "catchment": null, "daily_level_measure_url": "http://environment.data.gov.uk/hydrology/id/measures/6add4e80-29ba-4ff6-9e5a-233795d59b26-level-max-86400-m-qualified"}, {"station_ref": "751612", "label": "Scalehill", "lat": 54.580895, "lon": -3.318128, "catchment": null, "daily_level_measure_url": "http://environment.data.gov.uk/hydrology/id/measures/532a2993-7275-4050-8df4-b2314bc4f8e0-level-min-86400-m-qualified"}, {"station_ref": "E8221", "label": "Goldbridge", "lat": 50.974053, "lon": 0.034122, "catchment": null, "daily_level_measure_url": "http://environment.data.gov.uk/hydrology/id/measures/887950f8-6b72-48c3-8f25-b32c6a0e688b-level-max-86400-m-qualified"}, {"station_ref": "E14741", "label": "Atherfield", "lat": 50.619085, "lon": -1.353966, "catchment": null, "daily_level_measure_url": "http://environment.data.gov.uk/hydrology/id/measures/fe57175f-cfc7-4fcb-bed7-6a146ef67336-level-max-86400-m-qualified"}, {"station_ref": "F2102", "label": "Skip Br. K.Hammerton", "lat": 53.998494, "lon": -1.265485, "catchment": null, "daily_level_measure_url": "http://environment.data.gov.uk/hydrology/id/measures/aaac507d-5e62-474f-815d-c0b46aea04e8-level-min-86400-m-qualified"}, {"station_ref": "3660TH", "label": "Cranford Park", "lat": 51.488753, "lon": -0.412558, "catchment": null, "daily_level_measure_url": "http://environment.data.gov.uk/hydrology/id/measures/3d00208c-2ec1-4a84-9b0b-5b27b0fc6b7c-level-min-86400-m-qualified"}, {"station_ref": "4080", "label": "Lea Marston Lakes", "lat": 52.5408, "lon": -1.694665, "catchment": null, "daily_level_measure_url": "http://environment.data.gov.uk/hydrology/id/measures/6b62b651-1922-40b1-b2dc-b487a77c55b4-level-max-86400-m-qualified"}, {"station_ref": "2008", "label": "Tenbury", "lat": 52.313342, "lon": -2.591467, "catchment": null, "daily_level_measure_url": "http://environment.data.gov.uk/hydrology/id/measures/2b62e149-59e0-47e9-8650-dabee432da82-level-min-86400-m-qualified"}, {"station_ref": "E1652", "label": "Colsterworth", "lat": 52.810947, "lon": -0.623462, "catchment": null, "daily_level_measure_url": "http://environment.data.gov.uk/hydrology/id/measures/52814202-3a6e-475d-a6ee-ee5050b9342d-level-min-86400-m-qualified"}, {"station_ref": "4770TH", "label": "Fulling Mill", "lat": 51.837638, "lon": -0.221289, "catchment": null, "daily_level_measure_url": "http://environment.data.gov.uk/hydrology/id/measures/ce975340-e8ff-4b3d-bfc5-7ba57026ac22-level-min-86400-m-qualified"}, {"station_ref": "694039", "label": "Causey Bridges", "lat": 53.425074, "lon": -2.622247, "catchment": null, "daily_level_measure_url": "http://environment.data.gov.uk/hydrology/id/measures/a19fe1fc-0e4d-4e1f-88dd-7667af4b3d9d-level-max-86400-m-qualified"}, {"station_ref": "4082", "label": "Littlethorpe", "lat": 52.571046, "lon": -1.201646, "catchment": null, "daily_level_measure_url": "http://environment.data.gov.uk/hydrology/id/measures/d1df8d19-d1f7-4e83-8aa6-75820613be72-level-max-86400-m-qualified"}, {"station_ref": "0890TH", "label": "Lechlade", "lat": 51.692172, "lon": -1.672989, "catchment": null, "daily_level_measure_url": "http://environment.data.gov.uk/hydrology/id/measures/ef76b105-7412-45fc-976d-972c1f7e185a-level-max-86400-m-qualified"}, {"station_ref": "E21862", "label": "Meagre Farm", "lat": 52.254252, "lon": -0.307826, "catchment": null, "daily_level_measure_url": "http://environment.data.gov.uk/hydrology/id/measures/183111ef-5afe-463b-8934-30889ba56be9-level-max-86400-m-qualified"}, {"station_ref": "F1707", "label": "Armley", "lat": 53.801967, "lon": -1.575189, "catchment": null, "daily_level_measure_url": "http://environment.data.gov.uk/hydrology/id/measures/655a16a0-8498-4b83-a8f6-6816952b2262-level-max-86400-m-qualified"}, {"station_ref": "4031", "label": "Ilam", "lat": 53.053591, "lon": -1.792803, "catchment": null, "daily_level_measure_url": "http://environment.data.gov.uk/hydrology/id/measures/849b6df0-9cb0-4acc-b42e-59fc1071cb65-level-max-86400-m-qualified"}, {"station_ref": "50121", "label": "Gribbleford Bridge", "lat": 50.793341, "lon": -4.090328, "catchment": null, "daily_level_measure_url": "http://environment.data.gov.uk/hydrology/id/measures/f9fcfbc0-af1b-46f6-bf20-6d8aedc1c72f-level-min-86400-m-qualified"}, {"station_ref": "2057", "label": "Haw Bridge", "lat": 51.94917, "lon": -2.227052, "catchment": null, "daily_level_measure_url": "http://environment.data.gov.uk/hydrology/id/measures/a1136eb6-a447-4f77-89f6-5cb8d556898c-level-max-86400-m-qualified"}, {"station_ref": "3101SE", "label": "Easton", "lat": 51.089585, "lon": -1.271532, "catchment": null, "daily_level_measure_url": "http://environment.data.gov.uk/hydrology/id/measures/01d20c0f-8352-412f-8416-6a164f2381f4-level-min-86400-m-qualified"}, {"station_ref": "53134", "label": "Frenchay", "lat": 51.492605, "lon": -2.523597, "catchment": null, "daily_level_measure_url": "http://environment.data.gov.uk/hydrology/id/measures/f4a37857-9d23-4ab2-af0d-81171ad0d52a-level-max-86400-m-qualified"}, {"station_ref": "E22041", "label": "Stapleford", "lat": 52.141965, "lon": 0.148004, "catchment": null, "daily_level_measure_url": "http://environment.data.gov.uk/hydrology/id/measures/1c1e42b5-f8e3-4811-b5cc-37330e028d61-level-min-86400-m-qualified"}, {"station_ref": "2989TH", "label": "Addlestone", "lat": 51.374134, "lon": -0.478063, "catchment": null, "daily_level_measure_url": "http://environment.data.gov.uk/hydrology/id/measures/976c372b-8d8d-4dc7-8673-bbbc707423c5-level-max-86400-m-qualified"}, {"station_ref": "E21511", "label": "Willen", "lat": 52.058687, "lon": -0.714748, "catchment": null, "daily_level_measure_url": "http://environment.data.gov.uk/hydrology/id/measures/3db09b08-5c7e-4f20-9363-2691eba109f8-level-min-86400-m-qualified"}, {"station_ref": "1790TH", "label": "Abingdon", "lat": 51.666719, "lon": -1.305216, "catchment": null, "daily_level_measure_url": "http://environment.data.gov.uk/hydrology/id/measures/c257f8de-5cf1-4c1f-9b46-deea2006d745-level-max-86400-m-qualified"}, {"station_ref": "E2129", "label": "Brixworth", "lat": 52.330212, "lon": -0.920416, "catchment": null, "daily_level_measure_url": "http://environment.data.gov.uk/hydrology/id/measures/272fc811-86a6-4abc-b6e0-7ee3661744cb-level-min-86400-m-qualified"}, {"station_ref": "E12551", "label": "Borough Bridge", "lat": 51.087614, "lon": -1.189322, "catchment": null, "daily_level_measure_url": "http://environment.data.gov.uk/hydrology/id/measures/27c3e7a3-3357-478d-bdd5-17a3739cbc2c-level-min-86400-m-qualified"}, {"station_ref": "2128", "label": "Bredon", "lat": 52.033483, "lon": -2.117073, "catchment": null, "daily_level_measure_url": "http://environment.data.gov.uk/hydrology/id/measures/b401b1e3-c946-4a3e-bca3-3427e64eebba-level-max-86400-m-qualified"}, {"station_ref": "E22152", "label": "Bridgham", "lat": 52.432388, "lon": 0.877025, "catchment": null, "daily_level_measure_url": "http://environment.data.gov.uk/hydrology/id/measures/2836432d-1548-49d1-9330-dd4ce973a3e0-level-min-86400-m-qualified"}, {"station_ref": "E22798", "label": "Stisted", "lat": 51.88834, "lon": 0.603907, "catchment": null, "daily_level_measure_url": "http://environment.data.gov.uk/hydrology/id/measures/6aff06c9-d547-4ee4-b62e-eee5e5efa01b-level-max-86400-m-qualified"}, {"station_ref": "E22712", "label": "Hadleigh", "lat": 52.047662, "lon": 0.950823, "catchment": null, "daily_level_measure_url": "http://environment.data.gov.uk/hydrology/id/measures/f3536ad3-46f4-4882-a605-260958220d85-level-max-86400-m-qualified"}, {"station_ref": "4159TH", "label": "Carshalton", "lat": 51.367034, "lon": -0.162812, "catchment": null, "daily_level_measure_url": "http://environment.data.gov.uk/hydrology/id/measures/efe2509e-d4c4-42a8-ae09-dcc1ffcbfe67-level-min-86400-m-qualified"}, {"station_ref": "50134", "label": "Norley Bridge", "lat": 50.779392, "lon": -4.128077, "catchment": null, "daily_level_measure_url": "http://environment.data.gov.uk/hydrology/id/measures/0e04bb35-f2a5-4f5e-9e4c-3ffc9d6d4af2-level-min-86400-m-qualified"}, {"station_ref": "49119", "label": "Siblyback Weir", "lat": 50.505924, "lon": -4.495089, "catchment": null, "daily_level_measure_url": "http://environment.data.gov.uk/hydrology/id/measures/1aa41da2-0712-475e-beeb-a22df0cb7bfc-level-max-86400-m-qualified"}, {"station_ref": "023002", "label": "Eddys Bridge", "lat": 54.851887, "lon": -1.937552, "catchment": null, "daily_level_measure_url": "http://environment.data.gov.uk/hydrology/id/measures/78f44c69-5edc-486a-8c14-1f59391fb7e8-level-min-86400-m-qualified"}, {"station_ref": "3020TH", "label": "Farnham", "lat": 51.20945, "lon": -0.80355, "catchment": null, "daily_level_measure_url": "http://environment.data.gov.uk/hydrology/id/measures/64ef32d2-8077-46a8-9217-9194fb18f8bd-level-min-86400-m-qualified"}, {"station_ref": "2032", "label": "Saxons Lode", "lat": 52.049581, "lon": -2.200467, "catchment": null, "daily_level_measure_url": "http://environment.data.gov.uk/hydrology/id/measures/f120647f-1a02-4597-8ba7-3cd7a1c90635-level-min-86400-m-qualified"}, {"station_ref": "44204", "label": "Maiden Newton", "lat": 50.77696, "lon": -2.573669, "catchment": null, "daily_level_measure_url": "http://environment.data.gov.uk/hydrology/id/measures/0e11ff44-2d10-4460-9b0f-1d9278be185f-level-min-86400-m-qualified"}, {"station_ref": "736417", "label": "Allotments", "lat": 54.193244, "lon": -3.084556, "catchment": null, "daily_level_measure_url": "http://environment.data.gov.uk/hydrology/id/measures/02d5c02d-c2a7-4b68-8cdf-402fc404fa76-level-max-86400-m-qualified"}, {"station_ref": "751613", "label": "Southwaite Bridge", "lat": 54.640384, "lon": -3.348254, "catchment": null, "daily_level_measure_url": "http://environment.data.gov.uk/hydrology/id/measures/cdeb0ab1-6c05-43f5-aa47-cb6248d8ffee-level-min-86400-m-qualified"}, {"station_ref": "E22351", "label": "Shefford", "lat": 52.040422, "lon": -0.335802, "catchment": null, "daily_level_measure_url": "http://environment.data.gov.uk/hydrology/id/measures/912a6d1f-035b-4d82-b83e-a09788190c61-level-max-86400-m-qualified"}, {"station_ref": "713122", "label": "Blue Bridge", "lat": 53.74458, "lon": -2.661773, "catchment": null, "daily_level_measure_url": "http://environment.data.gov.uk/hydrology/id/measures/7b8eea56-6cc1-42dc-8a18-c80bb003a37c-level-min-86400-m-qualified"}, {"station_ref": "47136", "label": "Pillaton Mill", "lat": 50.44025, "lon": -4.298958, "catchment": null, "daily_level_measure_url": "http://environment.data.gov.uk/hydrology/id/measures/817d17c7-3e01-4bc9-a7b3-8e2a5c6d0e5b-level-min-86400-m-qualified"}, {"station_ref": "43109", "label": "Wilton", "lat": 51.076386, "lon": -1.862553, "catchment": null, "daily_level_measure_url": "http://environment.data.gov.uk/hydrology/id/measures/439b85d9-21c4-4ae9-839f-5b31d1625aba-level-min-86400-m-qualified"}, {"station_ref": "F2515", "label": "Pickering Ings Bridge", "lat": 54.227169, "lon": -0.788071, "catchment": null, "daily_level_measure_url": "http://environment.data.gov.uk/hydrology/id/measures/141185ba-bb77-4239-849f-d17a01933e3b-level-min-86400-m-qualified"}, {"station_ref": "4003", "label": "Water Orton", "lat": 52.520795, "lon": -1.751692, "catchment": null, "daily_level_measure_url": "http://environment.data.gov.uk/hydrology/id/measures/2c7641ce-5071-4dbb-a20f-1c7d32a1945d-level-max-86400-m-qualified"}, {"station_ref": "F2216", "label": "Alma Weir", "lat": 54.133409, "lon": -1.518334, "catchment": null, "daily_level_measure_url": "http://environment.data.gov.uk/hydrology/id/measures/58f572ff-9fd1-4ebd-a05d-faf9e5c68fb5-level-max-86400-m-qualified"}, {"station_ref": "724836", "label": "Galgate", "lat": 53.991752, "lon": -2.792131, "catchment": null, "daily_level_measure_url": "http://environment.data.gov.uk/hydrology/id/measures/fd0f850f-2f54-46c0-ad53-1c56361d930c-level-max-86400-m-qualified"}, {"station_ref": "F2480", "label": "Newton-On-Ouse", "lat": 54.036111, "lon": -1.222971, "catchment": null, "daily_level_measure_url": "http://environment.data.gov.uk/hydrology/id/measures/b7d7ad0f-c16b-485d-9dcc-f4f845995a11-level-max-86400-m-qualified"}, {"station_ref": "44207", "label": "East Stoke Flume", "lat": 50.681052, "lon": -2.189221, "catchment": null, "daily_level_measure_url": "http://environment.data.gov.uk/hydrology/id/measures/2c8a3836-a281-4a0e-b196-e7be47c80ddd-level-max-86400-m-qualified"}, {"station_ref": "022009", "label": "Rothbury", "lat": 55.308429, "lon": -1.895897, "catchment": null, "daily_level_measure_url": "http://environment.data.gov.uk/hydrology/id/measures/13d2950b-9382-4c47-a378-875a2e2f10de-level-min-86400-m-qualified"}, {"station_ref": "023003", "label": "Reaverhill", "lat": 55.053461, "lon": -2.149371, "catchment": null, "daily_level_measure_url": "http://environment.data.gov.uk/hydrology/id/measures/13e619ad-ce41-428c-94a6-a93e550e64f4-level-max-86400-m-qualified"}, {"station_ref": null, "label": "Cerne Abbas Kettle Bridge", "lat": 50.811733, "lon": -2.478118, "catchment": null, "daily_level_measure_url": "http://environment.data.gov.uk/hydrology/id/measures/02c2361b-a383-4dfa-86f6-1475a11a9ccf-level-max-86400-m-qualified"}, {"station_ref": "43112", "label": "Norton Bavant", "lat": 51.183981, "lon": -2.132172, "catchment": null, "daily_level_measure_url": "http://environment.data.gov.uk/hydrology/id/measures/bdf4b017-b900-4dd5-b889-8990d9a2ee36-level-min-86400-m-qualified"}, {"station_ref": "E1746", "label": "Langworth", "lat": 53.27521, "lon": -0.402379, "catchment": null, "daily_level_measure_url": "http://environment.data.gov.uk/hydrology/id/measures/f25278f2-f4b5-4d32-86b1-e00e6cd33a6f-level-min-86400-m-qualified"}, {"station_ref": "E21191", "label": "Lode", "lat": 52.242159, "lon": 0.240538, "catchment": null, "daily_level_measure_url": "http://environment.data.gov.uk/hydrology/id/measures/1dd7b0f3-1823-4183-8286-77154d751b96-level-max-86400-m-qualified"}, {"station_ref": "46119", "label": "Loddiswell", "lat": 50.314236, "lon": -3.800826, "catchment": null, "daily_level_measure_url": "http://environment.data.gov.uk/hydrology/id/measures/c1e5e157-2320-48a9-9bb7-18db98d85fcb-level-max-86400-m-qualified"}, {"station_ref": "531192", "label": "Berkeley", "lat": 51.686426, "lon": -2.460679, "catchment": null, "daily_level_measure_url": "http://environment.data.gov.uk/hydrology/id/measures/c305da5e-a910-49d8-b07c-434b1d1ee109-level-max-86400-m-qualified"}, {"station_ref": "F3581", "label": "Harwood", "lat": 54.673069, "lon": -2.234448, "catchment": null, "daily_level_measure_url": "http://environment.data.gov.uk/hydrology/id/measures/fa869369-4a45-4377-8d05-ec4f3a530e46-level-max-86400-m-qualified"}, {"station_ref": "E22761", "label": "Lexden", "lat": 51.898986, "lon": 0.851047, "catchment": null, "daily_level_measure_url": "http://environment.data.gov.uk/hydrology/id/measures/c126ae2b-2a89-4867-ad78-2a0685b93678-level-max-86400-m-qualified"}, {"station_ref": "3090TH", "label": "Weybridge", "lat": 51.37248, "lon": -0.466322, "catchment": null, "daily_level_measure_url": "http://environment.data.gov.uk/hydrology/id/measures/2629abeb-e504-49f7-9996-080f37e15930-level-min-86400-m-qualified"}, {"station_ref": "1420TH", "label": "Banbury", "lat": 52.066089, "lon": -1.332824, "catchment": null, "daily_level_measure_url": "http://environment.data.gov.uk/hydrology/id/measures/08a56e86-d214-4288-8726-8de31eb55766-level-max-86400-m-qualified"}, {"station_ref": "681210", "label": "Rudheath", "lat": 53.242047, "lon": -2.499577, "catchment": null, "daily_level_measure_url": "http://environment.data.gov.uk/hydrology/id/measures/99ef9f3b-c468-4bd7-90b9-ff505be46b98-level-max-86400-m-qualified"}, {"station_ref": "5280TH", "label": "Rye Bridge", "lat": 51.770008, "lon": 0.006126, "catchment": null, "daily_level_measure_url": "http://environment.data.gov.uk/hydrology/id/measures/617d7d56-051e-4357-bd12-5ed0a71fa78d-level-max-86400-m-qualified"}, {"station_ref": "E2699", "label": "Slade Brook", "lat": 52.377693, "lon": -0.718949, "catchment": null, "daily_level_measure_url": "http://environment.data.gov.uk/hydrology/id/measures/09613520-a40c-48eb-8260-6266468f5cf3-level-min-86400-m-qualified"}, {"station_ref": "5329TH", "label": "Sewardstone Road", "lat": 51.681471, "lon": 0.004958, "catchment": null, "daily_level_measure_url": "http://environment.data.gov.uk/hydrology/id/measures/daca0d8d-b3de-4945-81fb-b01f249210f6-level-max-86400-m-qualified"}, {"station_ref": "E10389", "label": "Iping Mill", "lat": 50.999224, "lon": -0.786918, "catchment": null, "daily_level_measure_url": "http://environment.data.gov.uk/hydrology/id/measures/e3990cb0-3ae8-4cd4-b009-55290be90c92-level-max-86400-m-qualified"}, {"station_ref": "53141", "label": "Frampton Cotterell", "lat": 51.537798, "lon": -2.481149, "catchment": null, "daily_level_measure_url": "http://environment.data.gov.uk/hydrology/id/measures/aaf8fe03-f3db-43f4-8ce6-701ebfac9ca7-level-min-86400-m-qualified"}, {"station_ref": "4067", "label": "Church Wilne", "lat": 52.880546, "lon": -1.345613, "catchment": null, "daily_level_measure_url": "http://environment.data.gov.uk/hydrology/id/measures/370cba4c-c28e-4063-aaea-a99575c408b6-level-min-86400-m-qualified"}, {"station_ref": "2898", "label": "Wildmoor Flume", "lat": 52.369737, "lon": -2.06259, "catchment": null, "daily_level_measure_url": "http://environment.data.gov.uk/hydrology/id/measures/e6f18d6b-f5ab-4e66-b9c6-4fe1172219c4-level-max-86400-m-qualified"}, {"station_ref": "2604TH", "label": "Maidenhead", "lat": 51.52419, "lon": -0.70203, "catchment": null, "daily_level_measure_url": "http://environment.data.gov.uk/hydrology/id/measures/79515906-3efd-424e-8e32-0db1873cb3a3-level-min-86400-m-qualified"}, {"station_ref": "44109", "label": "Broadwey", "lat": 50.653707, "lon": -2.473201, "catchment": null, "daily_level_measure_url": "http://environment.data.gov.uk/hydrology/id/measures/5f23ee39-cca5-4cf3-a793-a3098db4b071-level-max-86400-m-qualified"}, {"station_ref": "685517", "label": "Acton Lane", "lat": 53.395655, "lon": -3.121735, "catchment": null, "daily_level_measure_url": "http://environment.data.gov.uk/hydrology/id/measures/361ea25c-e13b-4577-8689-2f3bfc3199a2-level-min-86400-m-qualified"}, {"station_ref": "E22778", "label": "Copford Hall", "lat": 51.955272, "lon": 0.426925, "catchment": null, "daily_level_measure_url": "http://environment.data.gov.uk/hydrology/id/measures/2cfe8824-6390-42cc-91c5-10718aa0ab03-level-min-86400-m-qualified"}, {"station_ref": "F2202", "label": "Westwick", "lat": 54.098061, "lon": -1.456997, "catchment": null, "daily_level_measure_url": "http://environment.data.gov.uk/hydrology/id/measures/e2db454d-9cdd-43b0-b47c-6fb047bd6fb4-level-max-86400-m-qualified"}, {"station_ref": "50131", "label": "Meldon", "lat": 50.706654, "lon": -4.036259, "catchment": null, "daily_level_measure_url": "http://environment.data.gov.uk/hydrology/id/measures/7aec20ef-6d53-43e0-80dd-7431d5ce6495-level-min-86400-m-qualified"}, {"station_ref": "4039", "label": "Calthorpe Park", "lat": 52.460329, "lon": -1.897294, "catchment": null, "daily_level_measure_url": "http://environment.data.gov.uk/hydrology/id/measures/6e354c27-1342-485c-acad-79b15e41dcf0-level-min-86400-m-qualified"}, {"station_ref": "055021_TG_305", "label": "Butts Bridge", "lat": 52.226409, "lon": -2.730375, "catchment": null, "daily_level_measure_url": "http://environment.data.gov.uk/hydrology/id/measures/f0ce59f5-6075-4861-8976-be2f44424535-level-max-86400-m-qualified"}, {"station_ref": "023037", "label": "Bellingham", "lat": 55.142735, "lon": -2.262219, "catchment": null, "daily_level_measure_url": "http://environment.data.gov.uk/hydrology/id/measures/ac5d441f-d997-4348-a8d1-9683503835e5-level-min-86400-m-qualified"}, {"station_ref": "52205", "label": "Wookey", "lat": 51.209414, "lon": -2.678463, "catchment": null, "daily_level_measure_url": "http://environment.data.gov.uk/hydrology/id/measures/486b6f10-b986-43dc-b2e8-1a83c15d4051-level-min-86400-m-qualified"}, {"station_ref": "4980TH", "label": "Wadesmill", "lat": 51.839044, "lon": -0.027533, "catchment": null, "daily_level_measure_url": "http://environment.data.gov.uk/hydrology/id/measures/24734dfe-df3d-43fc-acda-77cbdbc2988e-level-max-86400-m-qualified"}, {"station_ref": "E21765", "label": "Fordham", "lat": 52.306115, "lon": 0.390665, "catchment": null, "daily_level_measure_url": "http://environment.data.gov.uk/hydrology/id/measures/fa1df2df-6c46-45ec-9aad-331c095431cb-level-min-86400-m-qualified"}, {"station_ref": "F2290", "label": "Low Houses Nr. Hawes", "lat": 54.289962, "lon": -2.257904, "catchment": null, "daily_level_measure_url": "http://environment.data.gov.uk/hydrology/id/measures/37772543-7410-45ad-aa14-75d97aaffe1d-level-min-86400-m-qualified"}, {"station_ref": "E14722", "label": "Burnt House", "lat": 50.664685, "lon": -1.176674, "catchment": null, "daily_level_measure_url": "http://environment.data.gov.uk/hydrology/id/measures/b326bac6-9b5e-446c-bde5-2643a0eb5cac-level-max-86400-m-qualified"}, {"station_ref": "43115", "label": "Upavon West", "lat": 51.302406, "lon": -1.809839, "catchment": null, "daily_level_measure_url": "http://environment.data.gov.uk/hydrology/id/measures/b0d98d93-45de-40c1-a1cf-cd32484c3542_432120-level-max-86400-m-qualified"}, {"station_ref": "43114", "label": "Upavon East", "lat": 51.302496, "lon": -1.809868, "catchment": null, "daily_level_measure_url": "http://environment.data.gov.uk/hydrology/id/measures/b0d98d93-45de-40c1-a1cf-cd32484c3542_432110-level-min-86400-m-qualified"}, {"station_ref": "3110TH", "label": "Staines Ash", "lat": 51.440376, "lon": -0.512035, "catchment": null, "daily_level_measure_url": "http://environment.data.gov.uk/hydrology/id/measures/3769621b-8599-4bcf-b5f9-1017619dbed2-level-max-86400-m-qualified"}, {"station_ref": null, "label": "East Stoke Weir", "lat": 50.679706, "lon": -2.182068, "catchment": null, "daily_level_measure_url": "http://environment.data.gov.uk/hydrology/id/measures/3435c742-67ba-42d0-8e82-b8bee647c87c-level-max-86400-m-qualified"}, {"station_ref": "4690TH", "label": "Water Hall", "lat": 51.773132, "lon": -0.117522, "catchment": null, "daily_level_measure_url": "http://environment.data.gov.uk/hydrology/id/measures/814e58ed-cec3-488b-9a99-cd0b3fa24a57-level-max-86400-m-qualified"}, {"station_ref": "52117", "label": "Pen Mill", "lat": 50.943441, "lon": -2.608695, "catchment": null, "daily_level_measure_url": "http://environment.data.gov.uk/hydrology/id/measures/3b5fce31-211e-4999-b7b5-b9fcf1e1ae3d-level-min-86400-m-qualified"}, {"station_ref": "5470TH", "label": "Loughton", "lat": 51.640481, "lon": 0.081584, "catchment": null, "daily_level_measure_url": "http://environment.data.gov.uk/hydrology/id/measures/64118c69-e564-40c3-9fec-0e6047e955b9-level-min-86400-m-qualified"}, {"station_ref": "5080TH", "label": "Wareside (Mardock)", "lat": 51.814817, "lon": 0.020302, "catchment": null, "daily_level_measure_url": "http://environment.data.gov.uk/hydrology/id/measures/2d91e39c-81a4-4fbe-9a87-7bbec794ec87-level-min-86400-m-qualified"}, {"station_ref": "2896TH", "label": "Pound Mill", "lat": 51.43615, "lon": -0.514892, "catchment": null, "daily_level_measure_url": "http://environment.data.gov.uk/hydrology/id/measures/3f750cca-ba3a-470e-b320-ea12543343c1-level-max-86400-m-qualified"}, {"station_ref": "2458TH", "label": "Bramshill", "lat": 51.326719, "lon": -0.917373, "catchment": null, "daily_level_measure_url": "http://environment.data.gov.uk/hydrology/id/measures/a9d74547-58ba-498f-9fe0-6d95901507ed-level-max-86400-m-qualified"}, {"station_ref": "E22869", "label": "Springfield", "lat": 51.736657, "lon": 0.479473, "catchment": null, "daily_level_measure_url": "http://environment.data.gov.uk/hydrology/id/measures/8dfc9b31-d090-4988-acfc-562ee23bb9d7-level-max-86400-m-qualified"}, {"station_ref": "022003", "label": "Shillmoor", "lat": 55.363296, "lon": -2.180352, "catchment": null, "daily_level_measure_url": "http://environment.data.gov.uk/hydrology/id/measures/12ebc12e-43be-4599-ac5b-57c6d357cc47-level-max-86400-m-qualified"}, {"station_ref": "742006", "label": "Cropple How", "lat": 54.36799, "lon": -3.339036, "catchment": null, "daily_level_measure_url": "http://environment.data.gov.uk/hydrology/id/measures/1d9b9038-501a-459e-8bad-5fe0962c9cb9-level-min-86400-m-qualified"}, {"station_ref": "1980TH", "label": "Wheatley", "lat": 51.740681, "lon": -1.115125, "catchment": null, "daily_level_measure_url": "http://environment.data.gov.uk/hydrology/id/measures/b86817d4-c71b-4bd4-ab64-4982bf812b12-level-max-86400-m-qualified"}, {"station_ref": "49121", "label": "Trengoffe", "lat": 50.477206, "lon": -4.595318, "catchment": null, "daily_level_measure_url": "http://environment.data.gov.uk/hydrology/id/measures/f87436ec-9077-49de-85c0-bf935ee0e3f8-level-max-86400-m-qualified"}, {"station_ref": "E23036", "label": "Billingford", "lat": 52.359321, "lon": 1.182289, "catchment": null, "daily_level_measure_url": "http://environment.data.gov.uk/hydrology/id/measures/f8b80146-bdfd-419b-9d09-1bd05c274034-level-max-86400-m-qualified"}, {"station_ref": "021033", "label": "Wooler", "lat": 55.546373, "lon": -2.010583, "catchment": null, "daily_level_measure_url": "http://environment.data.gov.uk/hydrology/id/measures/e3a215cc-bf59-44e6-9c07-90122efea9e5-level-min-86400-m-qualified"}, {"station_ref": "50130", "label": "Leehamford Bridge", "lat": 51.143171, "lon": -3.892262, "catchment": null, "daily_level_measure_url": "http://environment.data.gov.uk/hydrology/id/measures/1c1c7743-d410-49e6-a57c-4bfa9097eac7-level-min-86400-m-qualified"}, {"station_ref": "023011", "label": "Kielder Burn", "lat": 55.245011, "lon": -2.560803, "catchment": null, "daily_level_measure_url": "http://environment.data.gov.uk/hydrology/id/measures/f4e33ecf-176b-44e9-b45f-8f2990d18547-level-max-86400-m-qualified"}, {"station_ref": "2590TH", "label": "Bourne End Hedsor", "lat": 51.571866, "lon": -0.70858, "catchment": null, "daily_level_measure_url": "http://environment.data.gov.uk/hydrology/id/measures/678aa360-300c-4c54-a3b1-47604cb60971-level-min-86400-m-qualified"}, {"station_ref": "700408", "label": "Croston", "lat": 53.655464, "lon": -2.75971, "catchment": null, "daily_level_measure_url": "http://environment.data.gov.uk/hydrology/id/measures/d19726f9-e3db-455e-904e-b6c91934cd34-level-min-86400-m-qualified"}, {"station_ref": null, "label": "Croston Town Centre", "lat": 53.660255, "lon": -2.773824, "catchment": null, "daily_level_measure_url": "http://environment.data.gov.uk/hydrology/id/measures/d19726f9-e3db-455e-904e-b6c91934cd34_700445-level-max-86400-m-qualified"}, {"station_ref": "F2302", "label": "Crakehill Topcliffe", "lat": 54.154103, "lon": -1.350687, "catchment": null, "daily_level_measure_url": "http://environment.data.gov.uk/hydrology/id/measures/d1a229c2-1eec-43dd-8b89-1999568e293c-level-min-86400-m-qualified"}, {"station_ref": "2091", "label": "Warwick", "lat": 52.284987, "lon": -1.562922, "catchment": null, "daily_level_measure_url": "http://environment.data.gov.uk/hydrology/id/measures/9468508c-aff1-4004-8e71-62ab2884a8fa-level-min-86400-m-qualified"}, {"station_ref": "1995TH", "label": "Ewelme", "lat": 51.619679, "lon": -1.073713, "catchment": null, "daily_level_measure_url": "http://environment.data.gov.uk/hydrology/id/measures/fdc0c6cb-c938-4b40-9b8d-6bc0f81dbbec-level-max-86400-m-qualified"}, {"station_ref": "692726", "label": "Ashton Weir", "lat": 53.438164, "lon": -2.34395, "catchment": null, "daily_level_measure_url": "http://environment.data.gov.uk/hydrology/id/measures/ed2d0622-1e92-4886-a748-df6b7586d52c-level-min-86400-m-qualified"}, {"station_ref": "692190", "label": "Compstall", "lat": 53.413649, "lon": -2.058116, "catchment": null, "daily_level_measure_url": "http://environment.data.gov.uk/hydrology/id/measures/d7af3b3d-cad2-464d-bf4a-7449d85152c1-level-max-86400-m-qualified"}, {"station_ref": "693515", "label": "Bollington Mill", "lat": 53.379542, "lon": -2.406359, "catchment": null, "daily_level_measure_url": "http://environment.data.gov.uk/hydrology/id/measures/c02ac46e-bfca-4209-8521-5e1b8f2a7459-level-max-86400-m-qualified"}, {"station_ref": "712113", "label": "Barden Lane", "lat": 53.812381, "lon": -2.249554, "catchment": null, "daily_level_measure_url": "http://environment.data.gov.uk/hydrology/id/measures/0e3d02a9-ecd9-4dfd-8626-a4be5105aba1-level-max-86400-m-qualified"}, {"station_ref": "E23115", "label": "Creeting St. Mary", "lat": 52.166877, "lon": 1.051201, "catchment": null, "daily_level_measure_url": "http://environment.data.gov.uk/hydrology/id/measures/1ec252f0-998e-4674-8b7a-4925957b4df9-level-min-86400-m-qualified"}, {"station_ref": "F2708", "label": "West Ayton", "lat": 54.251016, "lon": -0.483998, "catchment": null, "daily_level_measure_url": "http://environment.data.gov.uk/hydrology/id/measures/28bb36cf-291b-45e7-b6de-52817e2b2417-level-min-86400-m-qualified"}, {"station_ref": "2190TH", "label": "Pangbourne", "lat": 51.484617, "lon": -1.087613, "catchment": null, "daily_level_measure_url": "http://environment.data.gov.uk/hydrology/id/measures/d65f7681-89ab-4aff-9c42-59da80eb5120-level-min-86400-m-qualified"}, {"station_ref": "48172", "label": "Helston County Bridge", "lat": 50.099947, "lon": -5.279833, "catchment": null, "daily_level_measure_url": "http://environment.data.gov.uk/hydrology/id/measures/47066e6f-3478-4f39-83e7-8f4bdf4b0257-level-max-86400-m-qualified"}, {"station_ref": "43214", "label": "Hurn", "lat": 50.771492, "lon": -1.822349, "catchment": null, "daily_level_measure_url": "http://environment.data.gov.uk/hydrology/id/measures/3e6ac6b0-3c12-482f-9d13-8d6407483b34-level-max-86400-m-qualified"}, {"station_ref": "720517", "label": "St Michaels", "lat": 53.863593, "lon": -2.817565, "catchment": null, "daily_level_measure_url": "http://environment.data.gov.uk/hydrology/id/measures/bba59546-8f69-4a24-8cc1-f4cdaebd754e-level-max-86400-m-qualified"}, {"station_ref": "52110", "label": "Halsewater", "lat": 51.020996, "lon": -3.132735, "catchment": null, "daily_level_measure_url": "http://environment.data.gov.uk/hydrology/id/measures/f409c5a2-5d4f-41d2-a734-b0707c778dd5-level-min-86400-m-qualified"}, {"station_ref": "43159", "label": "Salisbury Bourne", "lat": 51.062736, "lon": -1.779756, "catchment": null, "daily_level_measure_url": "http://environment.data.gov.uk/hydrology/id/measures/6ca98855-a69f-458b-b798-6283f7644857-level-max-86400-m-qualified"}, {"station_ref": "4641TH", "label": "Luton East Hyde", "lat": 51.851486, "lon": -0.376103, "catchment": null, "daily_level_measure_url": "http://environment.data.gov.uk/hydrology/id/measures/0290cb45-0d9f-468c-8503-7bcae31594d3-level-max-86400-m-qualified"}, {"station_ref": "45162", "label": "Withy Bridge", "lat": 50.751899, "lon": -3.454344, "catchment": null, "daily_level_measure_url": "http://environment.data.gov.uk/hydrology/id/measures/e30e2f0a-e9ca-415f-8fb9-0df9f0133591-level-min-86400-m-qualified"}, {"station_ref": "690510", "label": "Manchester Racecourse", "lat": 53.499886, "lon": -2.271622, "catchment": null, "daily_level_measure_url": "http://environment.data.gov.uk/hydrology/id/measures/8245803e-7926-4ff8-95fb-1f4b7be1d5cd-level-max-86400-m-qualified"}, {"station_ref": "50140", "label": "Umberleigh", "lat": 50.995466, "lon": -3.985034, "catchment": null, "daily_level_measure_url": "http://environment.data.gov.uk/hydrology/id/measures/fafd42b9-ed79-459c-98a6-83b7692eab78-level-max-86400-m-qualified"}, {"station_ref": "4175", "label": "Clifton Hall", "lat": 52.698684, "lon": -1.610847, "catchment": null, "daily_level_measure_url": "http://environment.data.gov.uk/hydrology/id/measures/fb48c9a1-d91b-471a-a0fa-b5abe8ccbd4d-level-max-86400-m-qualified"}, {"station_ref": "2012", "label": "Walcot", "lat": 52.706674, "lon": -2.605506, "catchment": null, "daily_level_measure_url": "http://environment.data.gov.uk/hydrology/id/measures/aded6ffd-1b3c-4fce-ad90-ec995a90a2a7-level-min-86400-m-qualified"}, {"station_ref": "700306", "label": "Wanes Blades Bridge", "lat": 53.606998, "lon": -2.792997, "catchment": null, "daily_level_measure_url": "http://environment.data.gov.uk/hydrology/id/measures/848df754-3005-43aa-80ce-2dba4138e942-level-max-86400-m-qualified"}, {"station_ref": "3625TH", "label": "Gutteridge Wood", "lat": 51.547719, "lon": -0.420185, "catchment": null, "daily_level_measure_url": "http://environment.data.gov.uk/hydrology/id/measures/db461ec1-3ea7-4ae3-bc19-916d7ee6358f-level-max-86400-m-qualified"}, {"station_ref": "E603", "label": "Hadlow", "lat": 51.222382, "lon": 0.33522, "catchment": null, "daily_level_measure_url": "http://environment.data.gov.uk/hydrology/id/measures/b3da4efe-3997-4799-8c1f-399c4ae293fc-level-min-86400-m-qualified"}, {"station_ref": "713120", "label": "Ewood Blackburn", "lat": 53.731275, "lon": -2.490431, "catchment": null, "daily_level_measure_url": "http://environment.data.gov.uk/hydrology/id/measures/7720e91c-4b92-436a-91b0-6386e8792189-level-max-86400-m-qualified"}, {"station_ref": "E21195", "label": "Melford", "lat": 52.412682, "lon": 0.762195, "catchment": null, "daily_level_measure_url": "http://environment.data.gov.uk/hydrology/id/measures/f357a614-cd56-4425-a685-133aa736e0c8-level-min-86400-m-qualified"}, {"station_ref": "2015", "label": "Besford Bridge", "lat": 52.114533, "lon": -2.108114, "catchment": null, "daily_level_measure_url": "http://environment.data.gov.uk/hydrology/id/measures/df197117-d3ba-4706-b6f5-a7c773ebab31-level-max-86400-m-qualified"}, {"station_ref": null, "label": "Gillingham Chantry Fields", "lat": 51.03513, "lon": -2.275047, "catchment": null, "daily_level_measure_url": "http://environment.data.gov.uk/hydrology/id/measures/a63195bf-80d6-4cee-9fb3-788f49fc088f-level-min-86400-m-qualified"}, {"station_ref": "724629", "label": "Caton", "lat": 54.081344, "lon": -2.722026, "catchment": null, "daily_level_measure_url": "http://environment.data.gov.uk/hydrology/id/measures/9ad5d28c-7cfe-46db-b39d-58701689cd59-level-max-86400-m-qualified"}, {"station_ref": "024004", "label": "Bedburn", "lat": 54.684628, "lon": -1.818499, "catchment": null, "daily_level_measure_url": "http://environment.data.gov.uk/hydrology/id/measures/5b0b598c-6bec-4b5b-b5fe-39d95f837e9e-level-max-86400-m-qualified"}, {"station_ref": "2016", "label": "Rodington", "lat": 52.723643, "lon": -2.609739, "catchment": null, "daily_level_measure_url": "http://environment.data.gov.uk/hydrology/id/measures/b8969b34-a0cc-4974-8893-e869f7200726-level-min-86400-m-qualified"}, {"station_ref": "E23277", "label": "Stowmarket", "lat": 52.181312, "lon": 1.008167, "catchment": null, "daily_level_measure_url": "http://environment.data.gov.uk/hydrology/id/measures/a9bb3fc0-2b28-4bdf-8f16-d372e9f7efcc-level-max-86400-m-qualified"}, {"station_ref": "690503", "label": "Kearsley", "lat": 53.546633, "lon": -2.372176, "catchment": null, "daily_level_measure_url": "http://environment.data.gov.uk/hydrology/id/measures/d54a74bc-7d2c-400e-abbd-e2ec37f9460f-level-max-86400-m-qualified"}, {"station_ref": "720247", "label": "Myerscough", "lat": 53.854718, "lon": -2.79135, "catchment": null, "daily_level_measure_url": "http://environment.data.gov.uk/hydrology/id/measures/c2003842-37ee-41b0-a5b2-3a257a95e959-level-min-86400-m-qualified"}, {"station_ref": "45211", "label": "Whitford", "lat": 50.752803, "lon": -3.047414, "catchment": null, "daily_level_measure_url": "http://environment.data.gov.uk/hydrology/id/measures/65e90cf2-5420-4521-a180-4d8750786e04-level-min-86400-m-qualified"}, {"station_ref": null, "label": "Branksome", "lat": 50.728603, "lon": -1.903979, "catchment": null, "daily_level_measure_url": "http://environment.data.gov.uk/hydrology/id/measures/8c15c0b7-41f7-45f4-a741-ae32b86ee49b-level-min-86400-m-qualified"}, {"station_ref": "E22697", "label": "Polstead", "lat": 52.003848, "lon": 0.890919, "catchment": null, "daily_level_measure_url": "http://environment.data.gov.uk/hydrology/id/measures/57b5cc50-50e7-401c-9071-9c60fc84e727-level-min-86400-m-qualified"}, {"station_ref": "2117", "label": "Churchover", "lat": 52.421794, "lon": -1.255694, "catchment": null, "daily_level_measure_url": "http://environment.data.gov.uk/hydrology/id/measures/f7fe310d-d263-486b-ab70-a4663975f7bd-level-min-86400-m-qualified"}, {"station_ref": null, "label": "Churchover Canal Feeder", "lat": 52.421793, "lon": -1.255591, "catchment": null, "daily_level_measure_url": "http://environment.data.gov.uk/hydrology/id/measures/f7fe310d-d263-486b-ab70-a4663975f7bd_2217-level-max-86400-m-qualified"}, {"station_ref": "022006", "label": "Hartford Bridge", "lat": 55.113817, "lon": -1.620697, "catchment": null, "daily_level_measure_url": "http://environment.data.gov.uk/hydrology/id/measures/c0744418-231d-4953-be28-bbef415aea01-level-min-86400-m-qualified"}, {"station_ref": "43118", "label": "Knapp Mill", "lat": 50.74813, "lon": -1.780142, "catchment": null, "daily_level_measure_url": "http://environment.data.gov.uk/hydrology/id/measures/0147a8fb-fb06-4f3e-bdcd-01ed17d6af3f-level-min-86400-m-qualified"}, {"station_ref": "711610", "label": "Hodder Place", "lat": 53.854446, "lon": -2.44938, "catchment": null, "daily_level_measure_url": "http://environment.data.gov.uk/hydrology/id/measures/f3904234-3063-44ac-b93a-0f52861ddbb4-level-max-86400-m-qualified"}, {"station_ref": "F2835", "label": "Sandhill Bridge", "lat": 53.917596, "lon": -0.897773, "catchment": null, "daily_level_measure_url": "http://environment.data.gov.uk/hydrology/id/measures/d5d96cd8-8fe7-4dd3-8c57-b782a999f92b-level-max-86400-m-qualified"}, {"station_ref": "5427TH", "label": "Chipping Ongar", "lat": 51.709101, "lon": 0.239586, "catchment": null, "daily_level_measure_url": "http://environment.data.gov.uk/hydrology/id/measures/54287cee-bbdf-4ae8-b5bb-e07858190af9-level-max-86400-m-qualified"}, {"station_ref": "45188", "label": "Upton", "lat": 51.050366, "lon": -3.444914, "catchment": null, "daily_level_measure_url": "http://environment.data.gov.uk/hydrology/id/measures/116dccde-a409-4aed-b68b-496a185f79a5-level-max-86400-m-qualified"}, {"station_ref": "531116", "label": "Frome Rodden", "lat": 51.230668, "lon": -2.308279, "catchment": null, "daily_level_measure_url": "http://environment.data.gov.uk/hydrology/id/measures/48f022f0-31d1-4e13-98f0-f70aacd05ca3-level-max-86400-m-qualified"}, {"station_ref": "692422", "label": "Broomstairs Bridge", "lat": 53.454945, "lon": -2.095911, "catchment": null, "daily_level_measure_url": "http://environment.data.gov.uk/hydrology/id/measures/31612a61-a7aa-4e37-8992-91be614b07b8-level-max-86400-m-qualified"}, {"station_ref": "45210", "label": "Fenny Bridges", "lat": 50.779947, "lon": -3.257297, "catchment": null, "daily_level_measure_url": "http://environment.data.gov.uk/hydrology/id/measures/b9f6ea7e-8e51-4647-ad81-a418ef6063ab-level-max-86400-m-qualified"}, {"station_ref": "2040", "label": "Tibberton", "lat": 52.781075, "lon": -2.474739, "catchment": null, "daily_level_measure_url": "http://environment.data.gov.uk/hydrology/id/measures/41a2a5d6-935d-441e-a733-a0837839e344-level-min-86400-m-qualified"},